{
"type": "FeatureCollection",
"crs": { "type": "name", "properties": { "name": "urn:ogc:def:crs:OGC:1.3:CRS84" } },
"features": [
{ "type": "Feature", "properties": { "Name": "Deysbrook Village Centre", "Address": "Deysbrook Way, Liverpool", "Postcode": "L12 4XF", "Category": "Food_parcels", "Addresses": "Deysbrook Way, Liverpool L12 4XF  UK", "lat": "53.4358177", "lon": "-2.8930663" }, "geometry": { "type": "Point", "coordinates": [ -2.893066, 53.435818 ] } },
{ "type": "Feature", "properties": { "Name": "Alive Believers Centre", "Address": "259-261 Boaler Street, Liverpool", "Postcode": "L6 9DH", "Category": "Food_parcels", "Addresses": "259-261 Boaler Street, Liverpool L6 9DH  UK", "lat": "53.4162538", "lon": "-2.9514547" }, "geometry": { "type": "Point", "coordinates": [ -2.951455, 53.416254 ] } },
{ "type": "Feature", "properties": { "Name": "All Saints Liverpool", "Address": "55 Sheil Road, Liverpool", "Postcode": "L6 3AD", "Category": "Food_parcels", "Addresses": "55 Sheil Road, Liverpool L6 3AD  UK", "lat": "53.4166361", "lon": "-2.9460069" }, "geometry": { "type": "Point", "coordinates": [ -2.946007, 53.416636 ] } },
{ "type": "Feature", "properties": { "Name": "Torus Foundation ", "Address": "FireFit Hub, 115 Upper Warwick Street", "Postcode": "L8 8HD", "Category": "Food_parcels", "Addresses": "FireFit Hub, 115 Upper Warwick Street L8 8HD  UK", "lat": "53.39235985000001", "lon": "-2.966368315271788" }, "geometry": { "type": "Point", "coordinates": [ -2.966368, 53.39236 ] } },
{ "type": "Feature", "properties": { "Name": "Liverpool Homeless Football Club", "Address": "151 Dale Street, Liverpool", "Postcode": "L2 2AH", "Category": "Food_parcels", "Addresses": "151 Dale Street, Liverpool L2 2AH  UK", "lat": "53.4101412", "lon": "-2.983768931604681" }, "geometry": { "type": "Point", "coordinates": [ -2.983769, 53.410141 ] } },
{ "type": "Feature", "properties": { "Name": "Rotunda Ltd", "Address": "107 -115 Great Mersey Street, Kirkdale, Liverpool", "Postcode": "L5 2PL", "Category": "Food_parcels", "Addresses": "107 -115 Great Mersey Street, Kirkdale, Liverpool L5 2PL  UK", "lat": "53.4279441", "lon": "-2.9814078" }, "geometry": { "type": "Point", "coordinates": [ -2.981408, 53.427944 ] } },
{ "type": "Feature", "properties": { "Name": "Merseyside Jewish Community Care", "Address": "Shifrin House, 433 Smithdown Road, Liverpool", "Postcode": "L15 3JL", "Category": "Food_parcels", "Addresses": "Shifrin House, 433 Smithdown Road, Liverpool L15 3JL  UK", "lat": "53.39038749892155", "lon": "-2.929595767516819" }, "geometry": { "type": "Point", "coordinates": [ -2.929596, 53.390387 ] } },
{ "type": "Feature", "properties": { "Name": "SOLA ARTS", "Address": "Toxteth Town Hall, 15 High Park Street, Liverpool", "Postcode": "L8 8DX", "Category": "Food_parcels", "Addresses": "Toxteth Town Hall, 15 High Park Street, Liverpool L8 8DX  UK", "lat": "53.3860594", "lon": "-2.964806925044094" }, "geometry": { "type": "Point", "coordinates": [ -2.964807, 53.386059 ] } },
{ "type": "Feature", "properties": { "Name": "Felicity Food Bank ", "Address": "Sandown Lane, Wavertree, Liverpool", "Postcode": "L15 8HY", "Category": "Food_parcels", "Addresses": "Sandown Lane, Wavertree, Liverpool L15 8HY  UK", "lat": "53.400876", "lon": "-2.921477" }, "geometry": { "type": "Point", "coordinates": [ -2.921477, 53.400876 ] } },
{ "type": "Feature", "properties": { "Name": "Pakistan Association PAL", "Address": "168 Mulgrave Street, Liverpool", "Postcode": "L8 2TF", "Category": "Food_parcels", "Addresses": "168 Mulgrave Street, Liverpool L8 2TF  UK", "lat": "53.3942758", "lon": "-2.9600399" }, "geometry": { "type": "Point", "coordinates": [ -2.96004, 53.394276 ] } },
{ "type": "Feature", "properties": { "Name": "Liverpool Six Community Association ", "Address": "99 Queens Road Liverpool", "Postcode": "L6 2NF", "Category": "Food_parcels", "Addresses": "99 Queens Road Liverpool L6 2NF  UK", "lat": "53.4175352", "lon": "-2.9602029" }, "geometry": { "type": "Point", "coordinates": [ -2.960203, 53.417535 ] } },
{ "type": "Feature", "properties": { "Name": "Flowers foodbank ", "Address": "1 Citron Close, Walton, Liverpool", "Postcode": "L9 1LG", "Category": "Food_parcels", "Addresses": "1 Citron Close, Walton, Liverpool L9 1LG  UK", "lat": "53.4536966", "lon": "-2.9507013" }, "geometry": { "type": "Point", "coordinates": [ -2.950701, 53.453697 ] } },
{ "type": "Feature", "properties": { "Name": "Bridge2", "Address": "36 Windsor Street, Liverpool", "Postcode": "L8 1XF", "Category": "Food_parcels", "Addresses": "36 Windsor Street, Liverpool L8 1XF  UK", "lat": "53.3899623", "lon": "-2.9658494" }, "geometry": { "type": "Point", "coordinates": [ -2.965849, 53.389962 ] } },
{ "type": "Feature", "properties": { "Name": "Liverpool Lighthouse", "Address": "Liverpool Lighthouse,  Oakfield Road,  Anfield,  Liverpool", "Postcode": "L4 0UF", "Category": "Food_parcels", "Addresses": "Liverpool Lighthouse,  Oakfield Road,  Anfield,  Liverpool L4 0UF  UK", "lat": "53.4294089", "lon": "-2.9603388" }, "geometry": { "type": "Point", "coordinates": [ -2.960339, 53.429409 ] } },
{ "type": "Feature", "properties": { "Name": "Kensington Methodist Church", "Address": "Kensington Methodist Church,  294 Kensington  Liverpool", "Postcode": "L7 2RN", "Category": "Food_parcels", "Addresses": "Kensington Methodist Church,  294 Kensington  Liverpool L7 2RN  UK", "lat": "53.4117938", "lon": "-2.946785962116155" }, "geometry": { "type": "Point", "coordinates": [ -2.946786, 53.411794 ] } },
{ "type": "Feature", "properties": { "Name": "The Florence Institute Trust (The Florrie)", "Address": "377 Mill Street, Liverpool", "Postcode": "L8 4RF", "Category": "Food_parcels", "Addresses": "377 Mill Street, Liverpool L8 4RF  UK", "lat": "53.3829213", "lon": "-2.9677504" }, "geometry": { "type": "Point", "coordinates": [ -2.96775, 53.382921 ] } },
{ "type": "Feature", "properties": { "Name": "Vauxhall Children centre", "Address": "Tichfield Street, Vauxhall, Liverpool ", "Postcode": "L5 8UT ", "Category": "Food_parcels", "Addresses": "Tichfield Street, Vauxhall, Liverpool  L5 8UT   UK", "lat": "53.41901499241965", "lon": "-2.986977767428784" }, "geometry": { "type": "Point", "coordinates": [ -2.986978, 53.419015 ] } },
{ "type": "Feature", "properties": { "Name": "Daisy Inclusive UK", "Address": "2 Barnes Street, Everton, Liverpool", "Postcode": "L6 5LB", "Category": "Food_parcels", "Addresses": "2 Barnes Street, Everton, Liverpool L6 5LB  UK", "lat": "53.4219442", "lon": "-2.9585749" }, "geometry": { "type": "Point", "coordinates": [ -2.958575, 53.421944 ] } },
{ "type": "Feature", "properties": { "Name": "Anfield Children Centre", "Address": "Anfield Children Centre, Oakfield, Anfield, Liverpool", "Postcode": "L4 2QG", "Category": "Food_parcels", "Addresses": "Anfield Children Centre, Oakfield, Anfield, Liverpool L4 2QG  UK", "lat": "53.42738193934771", "lon": "-2.956258843929325" }, "geometry": { "type": "Point", "coordinates": [ -2.956259, 53.427382 ] } },
{ "type": "Feature", "properties": { "Name": "Mary Hughes @The New Belve Youth and Community Centre ", "Address": "89-92 Miles Street, Liverpool", "Postcode": "L8 4PX ", "Category": "Food_parcels", "Addresses": "89-92 Miles Street, Liverpool L8 4PX   UK", "lat": "53.3840674136427", "lon": "-2.959241839470366" }, "geometry": { "type": "Point", "coordinates": [ -2.959242, 53.384067 ] } },
{ "type": "Feature", "properties": { "Name": "The Unity Youth and Community Centre", "Address": "49 Dove Street, Liverpool", "Postcode": "L8 0TU", "Category": "Food_parcels", "Addresses": "49 Dove Street, Liverpool L8 0TU  UK", "lat": "53.3957314", "lon": "-2.9523168" }, "geometry": { "type": "Point", "coordinates": [ -2.952317, 53.395731 ] } },
{ "type": "Feature", "properties": { "Name": "Bridge Chapel Centre - South Liverpool foodbank", "Address": "Heath Road, Garston, Liverpool", "Postcode": "L19 4XR", "Category": "Food_parcels", "Addresses": "Heath Road, Garston, Liverpool L19 4XR  UK", "lat": "53.3662829", "lon": "-2.8928868" }, "geometry": { "type": "Point", "coordinates": [ -2.892887, 53.366283 ] } },
{ "type": "Feature", "properties": { "Name": "Croxteth Gems Community Association", "Address": "Gems Centre, Armill Road, Croxteth, Liverpool", "Postcode": "L11 4TR", "Category": "Food_parcels", "Addresses": "Gems Centre, Armill Road, Croxteth, Liverpool L11 4TR  UK", "lat": "53.45151273547543", "lon": "-2.900135770914694" }, "geometry": { "type": "Point", "coordinates": [ -2.900136, 53.451513 ] } },
{ "type": "Feature", "properties": { "Name": "Vauxhall Children centre", "Address": "Fountains Road, Kirkdale, Liverpool", "Postcode": "L4 1QH", "Category": "Food_parcels", "Addresses": "Fountains Road, Kirkdale, Liverpool L4 1QH  UK", "lat": "53.433189", "lon": "-2.980608" }, "geometry": { "type": "Point", "coordinates": [ -2.980608, 53.433189 ] } },
{ "type": "Feature", "properties": { "Name": "South Liverpool Foodbank Noah's Ark Centre ", "Address": "Ganworth Road, Speke, Liverpool", "Postcode": "L24 2SA", "Category": "Food_parcels", "Addresses": "Ganworth Road, Speke, Liverpool L24 2SA  UK", "lat": "53.34018823347688", "lon": "-2.838057659680016" }, "geometry": { "type": "Point", "coordinates": [ -2.838058, 53.340188 ] } },
{ "type": "Feature", "properties": { "Name": "South Liverpool Foodbank Frontline Church", "Address": "147 Lawrence Road, Wavertree, Liverpool", "Postcode": "L15 3HA", "Category": "Food_parcels", "Addresses": "147 Lawrence Road, Wavertree, Liverpool L15 3HA  UK", "lat": "53.3953392", "lon": "-2.9289792" }, "geometry": { "type": "Point", "coordinates": [ -2.928979, 53.395339 ] } },
{ "type": "Feature", "properties": { "Name": "South Liverpool Foodbank Deeper Life Church", "Address": "Solway St East, Toxteth, Liverpool", "Postcode": "L8 0TY", "Category": "Food_parcels", "Addresses": "Solway St East, Toxteth, Liverpool L8 0TY  UK", "lat": "53.394929", "lon": "-2.9503492" }, "geometry": { "type": "Point", "coordinates": [ -2.950349, 53.394929 ] } },
{ "type": "Feature", "properties": { "Name": "South Liverpool Foodbank St. Mark's Church", "Address": "Cranwell Road, Childwall Valley, Liverpool", "Postcode": "L25 1NZ", "Category": "Food_parcels", "Addresses": "Cranwell Road, Childwall Valley, Liverpool L25 1NZ  UK", "lat": "53.3959199", "lon": "-2.8679087" }, "geometry": { "type": "Point", "coordinates": [ -2.867909, 53.39592 ] } },
{ "type": "Feature", "properties": { "Name": "South Liverpool Foodbank St. Mary's Church", "Address": "South Drive, Wavertree, Liverpool", "Postcode": "L15 8JJ", "Category": "Food_parcels", "Addresses": "South Drive, Wavertree, Liverpool L15 8JJ  UK", "lat": "53.400002", "lon": "-2.9185768" }, "geometry": { "type": "Point", "coordinates": [ -2.918577, 53.400002 ] } },
{ "type": "Feature", "properties": { "Name": "South Liverpool Foodbank St Gabriel's Church", "Address": "Yates St, Dingle, Liverpool", "Postcode": "L8 6RD", "Category": "Food_parcels", "Addresses": "Yates St, Dingle, Liverpool L8 6RD  UK", "lat": "53.385634", "lon": "-2.9725671" }, "geometry": { "type": "Point", "coordinates": [ -2.972567, 53.385634 ] } },
{ "type": "Feature", "properties": { "Name": "South Liverpool Foodbank Netherley Youth & Community Initiative", "Address": "Damson Road, Netherley, Liverpool", "Postcode": "L27 8XR", "Category": "Food_parcels", "Addresses": "Damson Road, Netherley, Liverpool L27 8XR  UK", "lat": "53.3907565", "lon": "-2.8371796" }, "geometry": { "type": "Point", "coordinates": [ -2.83718, 53.390757 ] } },
{ "type": "Feature", "properties": { "Name": "North Liverpool Foodbank", "Address": "St Andrews Church Hall Adshead Road, Clubmoor, Liverpool", "Postcode": "L13 0AL", "Category": "Food_parcels", "Addresses": "St Andrews Church Hall Adshead Road, Clubmoor, Liverpool L13 0AL  UK", "lat": "53.43282702915695", "lon": "-2.925735385131019" }, "geometry": { "type": "Point", "coordinates": [ -2.925735, 53.432827 ] } },
{ "type": "Feature", "properties": { "Name": "The Salvation Army (North Liverpool Foodbank)", "Address": "Cavendish Drive, Walton, Liverpool", "Postcode": "L9 1HQ", "Category": "Food_parcels", "Addresses": "Cavendish Drive, Walton, Liverpool L9 1HQ  UK", "lat": "53.450952", "lon": "-2.9598197" }, "geometry": { "type": "Point", "coordinates": [ -2.95982, 53.450952 ] } },
{ "type": "Feature", "properties": { "Name": "Walton Cornerstone Centre (North Liverpool Foodbank)", "Address": "2 Liston Street, Walton, Liverpool", "Postcode": "L4 5RT", "Category": "Food_parcels", "Addresses": "2 Liston Street, Walton, Liverpool L4 5RT  UK", "lat": "53.4465765", "lon": "-2.9694424" }, "geometry": { "type": "Point", "coordinates": [ -2.969442, 53.446576 ] } },
{ "type": "Feature", "properties": { "Name": "St Christophers Church (North Liverpool Foodbank)", "Address": "Lorenzo Drive, Norris Green, Liverpool", "Postcode": "L11 1BQ", "Category": "Food_parcels", "Addresses": "Lorenzo Drive, Norris Green, Liverpool L11 1BQ  UK", "lat": "53.4423132", "lon": "-2.926471" }, "geometry": { "type": "Point", "coordinates": [ -2.926471, 53.442313 ] } },
{ "type": "Feature", "properties": { "Name": "Christchurch Anfield Breck (North Liverpool Foodbank)", "Address": "157 Hartnup Street, Anfield, Liverpool", "Postcode": "L5 1UW", "Category": "Food_parcels", "Addresses": "157 Hartnup Street, Anfield, Liverpool L5 1UW  UK", "lat": "53.42945493874682", "lon": "-2.962280535834658" }, "geometry": { "type": "Point", "coordinates": [ -2.962281, 53.429455 ] } },
{ "type": "Feature", "properties": { "Name": "West Everton Community Council (North Liverpool Foodbank)", "Address": "The Friary Centre, Bute Street, Liverpool", "Postcode": "L5 3LA", "Category": "Food_parcels", "Addresses": "The Friary Centre, Bute Street, Liverpool L5 3LA  UK", "lat": "53.4168134889803", "lon": "-2.97374619975871" }, "geometry": { "type": "Point", "coordinates": [ -2.973746, 53.416813 ] } },
{ "type": "Feature", "properties": { "Name": "Good Shepherd Church", "Address": "Lower House Lane, Liverpool", "Postcode": "L11 2SF", "Category": "Food_parcels", "Addresses": "Lower House Lane, Liverpool L11 2SF  UK", "lat": "53.4482285", "lon": "-2.9113406" }, "geometry": { "type": "Point", "coordinates": [ -2.911341, 53.448228 ] } },
{ "type": "Feature", "properties": { "Name": "All Saints Stoneycroft (North Liverpool Foodbank)", "Address": "Broadgreen Road, Liverpool", "Postcode": "L13 4BW", "Category": "Food_parcels", "Addresses": "Broadgreen Road, Liverpool L13 4BW  UK", "lat": "53.4074884", "lon": "-2.9024916" }, "geometry": { "type": "Point", "coordinates": [ -2.902492, 53.407488 ] } },
{ "type": "Feature", "properties": { "Name": "St Pauls Church (North Liverpool Foodbank)", "Address": "Formosa Drive, Fazakerley, Liverpool", "Postcode": "L10 7LB", "Category": "Food_parcels", "Addresses": "Formosa Drive, Fazakerley, Liverpool L10 7LB  UK", "lat": "53.4677272", "lon": "-2.922930213196095" }, "geometry": { "type": "Point", "coordinates": [ -2.92293, 53.467727 ] } },
{ "type": "Feature", "properties": { "Name": "St John the Baptist Church (North Liverpool Foodbank)", "Address": "West Derby Road, Green Lane, Tuebrook, Liverpool", "Postcode": "L13 7EA", "Category": "Food_parcels", "Addresses": "West Derby Road, Green Lane, Tuebrook, Liverpool L13 7EA  UK", "lat": "53.42309389741094", "lon": "-2.928971688458159" }, "geometry": { "type": "Point", "coordinates": [ -2.928972, 53.423094 ] } },
{ "type": "Feature", "properties": { "Name": "Kensington & Fairfield food bank", "Address": "The Fairfield Centre, Sheil Road, Liverpool", "Postcode": "L6 3AA", "Category": "Food_parcels", "Addresses": "The Fairfield Centre, Sheil Road, Liverpool L6 3AA  UK", "lat": "53.41281254313336", "lon": "-2.944768613739691" }, "geometry": { "type": "Point", "coordinates": [ -2.944769, 53.412813 ] } },
{ "type": "Feature", "properties": { "Name": "The Opening Doors Project ", "Address": "St Nathanaels Church, Fazakerly Road, Liverpool", "Postcode": "L9 2AJ", "Category": "Meal_providers", "Addresses": "St Nathanaels Church, Fazakerly Road, Liverpool L9 2AJ  UK", "lat": "53.4561901411555", "lon": "-2.956394096602789" }, "geometry": { "type": "Point", "coordinates": [ -2.956394, 53.45619 ] } },
{ "type": "Feature", "properties": { "Name": "Community Shop CIC", "Address": "211 Walton Road, Liverpool   ", "Postcode": "L4 4AJ", "Category": "Meal_providers", "Addresses": "211 Walton Road, Liverpool    L4 4AJ  UK", "lat": "53.4339383", "lon": "-2.9728929" }, "geometry": { "type": "Point", "coordinates": [ -2.972893, 53.433938 ] } },
{ "type": "Feature", "properties": { "Name": "St. Mary's Church, Grassendale", "Address": "St. Mary's Church, St. Mary's Road, Cressington, Liverpool", "Postcode": "L19 0NE", "Category": "Meal_providers", "Addresses": "St. Mary's Church, St. Mary's Road, Cressington, Liverpool L19 0NE  UK", "lat": "53.358976", "lon": "-2.9086509" }, "geometry": { "type": "Point", "coordinates": [ -2.908651, 53.358976 ] } },
{ "type": "Feature", "properties": { "Name": "Liverpool Football Club ", "Address": "Anfield Stadium, Oakfield Road, Anfield, Liverpool", "Postcode": "L4 0TH", "Category": "Meal_providers", "Addresses": "Anfield Stadium, Oakfield Road, Anfield, Liverpool L4 0TH  UK", "lat": "53.43083783292643", "lon": "-2.960987999984673" }, "geometry": { "type": "Point", "coordinates": [ -2.960988, 53.430838 ] } },
{ "type": "Feature", "properties": { "Name": "FoodCycle Liverpool", "Address": "St Cleopas Church, 400 Mill Street, Toxteth, Liverpool", "Postcode": "L8 4RF", "Category": "Meal_providers", "Addresses": "St Cleopas Church, 400 Mill Street, Toxteth, Liverpool L8 4RF  UK", "lat": "53.3836052029916", "lon": "-2.968613028741475" }, "geometry": { "type": "Point", "coordinates": [ -2.968613, 53.383605 ] } },
{ "type": "Feature", "properties": { "Name": "Deysbrook Village Centre", "Address": "Deysbrook Way, Liverpool", "Postcode": "L12 4XF", "Category": "Meal_providers", "Addresses": "Deysbrook Way, Liverpool L12 4XF  UK", "lat": "53.4358177", "lon": "-2.8930663" }, "geometry": { "type": "Point", "coordinates": [ -2.893066, 53.435818 ] } },
{ "type": "Feature", "properties": { "Name": "Alive Believers Centre", "Address": "259-261 Boaler Street, Liverpool", "Postcode": "L6 9DH", "Category": "Meal_providers", "Addresses": "259-261 Boaler Street, Liverpool L6 9DH  UK", "lat": "53.4162538", "lon": "-2.9514547" }, "geometry": { "type": "Point", "coordinates": [ -2.951455, 53.416254 ] } },
{ "type": "Feature", "properties": { "Name": "Torus Foundation ", "Address": "115 Upper Warwick Street, Liverpool", "Postcode": "L8 8HD", "Category": "Meal_providers", "Addresses": "115 Upper Warwick Street, Liverpool L8 8HD  UK", "lat": "53.3914417", "lon": "-2.966717" }, "geometry": { "type": "Point", "coordinates": [ -2.966717, 53.391442 ] } },
{ "type": "Feature", "properties": { "Name": "Merseyside Jewish Community Care", "Address": "Shifrin House, 433 Smithdown Road, Liverpool", "Postcode": "L15 3JL", "Category": "Meal_providers", "Addresses": "Shifrin House, 433 Smithdown Road, Liverpool L15 3JL  UK", "lat": "53.39038749892155", "lon": "-2.929595767516819" }, "geometry": { "type": "Point", "coordinates": [ -2.929596, 53.390387 ] } },
{ "type": "Feature", "properties": { "Name": "SOLA ARTS", "Address": "Toxteth Town Hall, 15 High Park Street, Liverpool", "Postcode": "L8 8DX", "Category": "Meal_providers", "Addresses": "Toxteth Town Hall, 15 High Park Street, Liverpool L8 8DX  UK", "lat": "53.3860594", "lon": "-2.964806925044094" }, "geometry": { "type": "Point", "coordinates": [ -2.964807, 53.386059 ] } },
{ "type": "Feature", "properties": { "Name": "PAL association ", "Address": "168 Mulgrave Street, Liverpool", "Postcode": "L8 2TF", "Category": "Meal_providers", "Addresses": "168 Mulgrave Street, Liverpool L8 2TF  UK", "lat": "53.3942758", "lon": "-2.9600399" }, "geometry": { "type": "Point", "coordinates": [ -2.96004, 53.394276 ] } },
{ "type": "Feature", "properties": { "Name": "Liverpool Six Community Association ", "Address": "99 Queens Road, Liverpool ", "Postcode": "L6 2NF ", "Category": "Meal_providers", "Addresses": "99 Queens Road, Liverpool  L6 2NF   UK", "lat": "53.4175352", "lon": "-2.9602029" }, "geometry": { "type": "Point", "coordinates": [ -2.960203, 53.417535 ] } },
{ "type": "Feature", "properties": { "Name": "Flowers foodbank ", "Address": "1 Citron Close, Walton, Liverpool", "Postcode": "L9 1LG", "Category": "Meal_providers", "Addresses": "1 Citron Close, Walton, Liverpool L9 1LG  UK", "lat": "53.4536966", "lon": "-2.9507013" }, "geometry": { "type": "Point", "coordinates": [ -2.950701, 53.453697 ] } },
{ "type": "Feature", "properties": { "Name": "Liverpool Lighthouse", "Address": "Oakfield Road, Anfield, Liverpool", "Postcode": "L4 0UF", "Category": "Meal_providers", "Addresses": "Oakfield Road, Anfield, Liverpool L4 0UF  UK", "lat": "53.4294089", "lon": "-2.9603388" }, "geometry": { "type": "Point", "coordinates": [ -2.960339, 53.429409 ] } },
{ "type": "Feature", "properties": { "Name": "Kensington Methodist Church", "Address": "Kensington Methodist Church,  294 Kensington, Liverpool", "Postcode": "L7 2RN", "Category": "Meal_providers", "Addresses": "Kensington Methodist Church,  294 Kensington, Liverpool L7 2RN  UK", "lat": "53.4117938", "lon": "-2.946785962116155" }, "geometry": { "type": "Point", "coordinates": [ -2.946786, 53.411794 ] } },
{ "type": "Feature", "properties": { "Name": "The Florence Institute Trust (The Florrie)", "Address": "377 Mill Street, Liverpool", "Postcode": "L8 4RF", "Category": "Meal_providers", "Addresses": "377 Mill Street, Liverpool L8 4RF  UK", "lat": "53.3829213", "lon": "-2.9677504" }, "geometry": { "type": "Point", "coordinates": [ -2.96775, 53.382921 ] } },
{ "type": "Feature", "properties": { "Name": "The New Belve Youth and Community Centre ", "Address": "89-91 Miles Street, Liverpool ", "Postcode": "L8 4PX ", "Category": "Meal_providers", "Addresses": "89-91 Miles Street, Liverpool  L8 4PX   UK", "lat": "53.3840294", "lon": "-2.9595095" }, "geometry": { "type": "Point", "coordinates": [ -2.959509, 53.384029 ] } },
{ "type": "Feature", "properties": { "Name": "The Unity Youth and Community Centre", "Address": "49 Dove Street, Liverpool", "Postcode": "L8 0TU", "Category": "Meal_providers", "Addresses": "49 Dove Street, Liverpool L8 0TU  UK", "lat": "53.3957314", "lon": "-2.9523168" }, "geometry": { "type": "Point", "coordinates": [ -2.952317, 53.395731 ] } }
]
}
