{
"type": "FeatureCollection",
"crs": { "type": "name", "properties": { "name": "urn:ogc:def:crs:OGC:1.3:CRS84" } },
"features": [
{ "type": "Feature", "properties": { "LocalAuthorityBusinessID": "79155", "BusinessName": "109 Allerton", "BusinessAddress": " 109 Allerton Road Mossley Hill Liverpool L18 2DD UK", "BusinessType": "Restaurant\/Cafe\/Canteen", "BusinessTypeID": "1", "RatingKey": null, "Postcode": "L18 2DD", "lat": "53.3818475", "lon": "-2.9054783" }, "geometry": { "type": "Point", "coordinates": [ -2.905478, 53.381847 ] } },
{ "type": "Feature", "properties": { "LocalAuthorityBusinessID": "78939", "BusinessName": "14forty", "BusinessAddress": " 100 Wavertree Boulevard Liverpool L7 9PT UK", "BusinessType": "Restaurant\/Cafe\/Canteen", "BusinessTypeID": "1", "RatingKey": null, "Postcode": "L7 9PT", "lat": "53.4057289", "lon": "-2.9340587" }, "geometry": { "type": "Point", "coordinates": [ -2.934059, 53.405729 ] } },
{ "type": "Feature", "properties": { "LocalAuthorityBusinessID": "PI\/000272350", "BusinessName": "2 in 1", "BusinessAddress": " 54 Durning Road Liverpool L7 5NG UK", "BusinessType": "Takeaway\/sandwich shop", "BusinessTypeID": "7844", "RatingKey": null, "Postcode": "L7 5NG", "lat": "53.4064445", "lon": "-2.9484254" }, "geometry": { "type": "Point", "coordinates": [ -2.948425, 53.406444 ] } },
{ "type": "Feature", "properties": { "LocalAuthorityBusinessID": "PI\/000260241", "BusinessName": "24 Kitchen Street", "BusinessAddress": " 24 Kitchen Street Liverpool L1 0AN UK", "BusinessType": "Pub\/bar\/nightclub", "BusinessTypeID": "7843", "RatingKey": null, "Postcode": "L1 0AN", "lat": "53.39737955", "lon": "-2.981934385258083" }, "geometry": { "type": "Point", "coordinates": [ -2.981934, 53.39738 ] } },
{ "type": "Feature", "properties": { "LocalAuthorityBusinessID": "PI\/000259103", "BusinessName": "5 Fifty Bistro", "BusinessAddress": " 550 Aigburth Road Cressington Liverpool L19 3QG UK", "BusinessType": "Restaurant\/Cafe\/Canteen", "BusinessTypeID": "1", "RatingKey": null, "Postcode": "L19 3QG", "lat": "53.3652029", "lon": "-2.9207984" }, "geometry": { "type": "Point", "coordinates": [ -2.920798, 53.365203 ] } },
{ "type": "Feature", "properties": { "LocalAuthorityBusinessID": "71342", "BusinessName": "51 Mill Lane", "BusinessAddress": " 51 Mill Lane West Derby Liverpool L12 7HZ UK", "BusinessType": "Pub\/bar\/nightclub", "BusinessTypeID": "7843", "RatingKey": null, "Postcode": "L12 7HZ", "lat": "53.4296765", "lon": "-2.9114265" }, "geometry": { "type": "Point", "coordinates": [ -2.911427, 53.429676 ] } },
{ "type": "Feature", "properties": { "LocalAuthorityBusinessID": "71166", "BusinessName": "52 Rose Lane", "BusinessAddress": " 52 Rose Lane Liverpool L18 5ED UK", "BusinessType": "Restaurant\/Cafe\/Canteen", "BusinessTypeID": "1", "RatingKey": null, "Postcode": "L18 5ED", "lat": "53.3802471", "lon": "-2.9133774" }, "geometry": { "type": "Point", "coordinates": [ -2.913377, 53.380247 ] } },
{ "type": "Feature", "properties": { "LocalAuthorityBusinessID": "PI\/000083672", "BusinessName": "60 Hope Street Ltd", "BusinessAddress": " 60 Hope Street Liverpool L1 9BZ UK", "BusinessType": "Restaurant\/Cafe\/Canteen", "BusinessTypeID": "1", "RatingKey": null, "Postcode": "L1 9BZ", "lat": "53.4002195", "lon": "-2.971404" }, "geometry": { "type": "Point", "coordinates": [ -2.971404, 53.400219 ] } },
{ "type": "Feature", "properties": { "LocalAuthorityBusinessID": "78196", "BusinessName": "7 Spices", "BusinessAddress": " 7 Cherry Avenue Liverpool L4 6UY UK", "BusinessType": "Takeaway\/sandwich shop", "BusinessTypeID": "7844", "RatingKey": null, "Postcode": "L4 6UY", "lat": "53.4417491", "lon": "-2.9526016" }, "geometry": { "type": "Point", "coordinates": [ -2.952602, 53.441749 ] } },
{ "type": "Feature", "properties": { "LocalAuthorityBusinessID": "PI\/000267568", "BusinessName": "81 Renshaw", "BusinessAddress": " 81 Renshaw Street Liverpool L1 2SJ UK", "BusinessType": "Restaurant\/Cafe\/Canteen", "BusinessTypeID": "1", "RatingKey": null, "Postcode": "L1 2SJ", "lat": "53.4029402", "lon": "-2.9759792" }, "geometry": { "type": "Point", "coordinates": [ -2.975979, 53.40294 ] } },
{ "type": "Feature", "properties": { "LocalAuthorityBusinessID": "21383", "BusinessName": "92 Degrees Coffee", "BusinessAddress": " 24 Hardman Street Liverpool L1 9AX UK", "BusinessType": "Restaurant\/Cafe\/Canteen", "BusinessTypeID": "1", "RatingKey": null, "Postcode": "L1 9AX", "lat": "53.4012908", "lon": "-2.9720827" }, "geometry": { "type": "Point", "coordinates": [ -2.972083, 53.401291 ] } },
{ "type": "Feature", "properties": { "LocalAuthorityBusinessID": "71930", "BusinessName": "92 Degrees Coffee", "BusinessAddress": " 36 Myrtle Street Liverpool L7 7AP UK", "BusinessType": "Restaurant\/Cafe\/Canteen", "BusinessTypeID": "1", "RatingKey": null, "Postcode": "L7 7AP", "lat": "53.4007769", "lon": "-2.9633132" }, "geometry": { "type": "Point", "coordinates": [ -2.963313, 53.400777 ] } },
{ "type": "Feature", "properties": { "LocalAuthorityBusinessID": "PI\/000099726", "BusinessName": "A & M Higham", "BusinessAddress": " 84 Mill Lane West Derby Liverpool L12 7JD UK", "BusinessType": "Retailers - other", "BusinessTypeID": "4613", "RatingKey": null, "Postcode": "L12 7JD", "lat": "53.4296765", "lon": "-2.9114265" }, "geometry": { "type": "Point", "coordinates": [ -2.911427, 53.429676 ] } },
{ "type": "Feature", "properties": { "LocalAuthorityBusinessID": "PI\/000247830", "BusinessName": "A A News", "BusinessAddress": " 27 Broad Green Road Liverpool L13 5SD UK", "BusinessType": "Retailers - other", "BusinessTypeID": "4613", "RatingKey": null, "Postcode": "L13 5SD", "lat": "53.4106237", "lon": "-2.9088395" }, "geometry": { "type": "Point", "coordinates": [ -2.90884, 53.410624 ] } },
{ "type": "Feature", "properties": { "LocalAuthorityBusinessID": "75928", "BusinessName": "A Slower Space", "BusinessAddress": " 38 Penny Lane Liverpool L18 1DG UK", "BusinessType": "Retailers - other", "BusinessTypeID": "4613", "RatingKey": null, "Postcode": "L18 1DG", "lat": "53.3864143", "lon": "-2.9202215" }, "geometry": { "type": "Point", "coordinates": [ -2.920221, 53.386414 ] } },
{ "type": "Feature", "properties": { "LocalAuthorityBusinessID": "PI\/000260651", "BusinessName": "A\/Z Frozen Foods Ltd", "BusinessAddress": " 98A High Street Wavertree Liverpool L15 8HQ UK", "BusinessType": "Distributors\/Transporters", "BusinessTypeID": "7", "RatingKey": null, "Postcode": "L15 8HQ", "lat": "53.3981248", "lon": "-2.9159961" }, "geometry": { "type": "Point", "coordinates": [ -2.915996, 53.398125 ] } },
{ "type": "Feature", "properties": { "LocalAuthorityBusinessID": "78980", "BusinessName": "A’n’T HOT DOG", "BusinessAddress": " 65 Manningham Road Liverpool L4 2UG UK", "BusinessType": "Mobile caterer", "BusinessTypeID": "7846", "RatingKey": null, "Postcode": "L4 2UG", "lat": "53.4298073", "lon": "-2.9489031" }, "geometry": { "type": "Point", "coordinates": [ -2.948903, 53.429807 ] } },
{ "type": "Feature", "properties": { "LocalAuthorityBusinessID": "PI\/000260380", "BusinessName": "A1 Entertainment (Celebrations)", "BusinessAddress": " 493 Rice Lane Liverpool L9 8AP UK", "BusinessType": "Retailers - other", "BusinessTypeID": "4613", "RatingKey": null, "Postcode": "L9 8AP", "lat": "53.4608019", "lon": "-2.9617876" }, "geometry": { "type": "Point", "coordinates": [ -2.961788, 53.460802 ] } },
{ "type": "Feature", "properties": { "LocalAuthorityBusinessID": "PI\/000113199", "BusinessName": "Aachen Hotel", "BusinessAddress": " 89 - 91 Mount Pleasant Liverpool L3 5TB UK", "BusinessType": "Hotel\/bed & breakfast\/guest house", "BusinessTypeID": "7842", "RatingKey": null, "Postcode": "L3 5TB", "lat": "53.4039002", "lon": "-2.9735908" }, "geometry": { "type": "Point", "coordinates": [ -2.973591, 53.4039 ] } },
{ "type": "Feature", "properties": { "LocalAuthorityBusinessID": "PI\/000268856", "BusinessName": "AB Quality Meats", "BusinessAddress": " 1 St Johns Road Liverpool L20 8BH UK", "BusinessType": "Mobile caterer", "BusinessTypeID": "7846", "RatingKey": null, "Postcode": "L20 8BH", "lat": "53.4404039", "lon": "-2.9928425" }, "geometry": { "type": "Point", "coordinates": [ -2.992843, 53.440404 ] } },
{ "type": "Feature", "properties": { "LocalAuthorityBusinessID": "PI\/000033424", "BusinessName": "Abbey Friar", "BusinessAddress": " 32 Childwall Abbey Road Liverpool L16 0JN UK", "BusinessType": "Takeaway\/sandwich shop", "BusinessTypeID": "7844", "RatingKey": null, "Postcode": "L16 0JN", "lat": "53.3945241", "lon": "-2.8906559" }, "geometry": { "type": "Point", "coordinates": [ -2.890656, 53.394524 ] } },
{ "type": "Feature", "properties": { "LocalAuthorityBusinessID": "PI\/000159890", "BusinessName": "Abbey Hotel", "BusinessAddress": " 153 Walton Lane Liverpool L4 4HH UK", "BusinessType": "Restaurant\/Cafe\/Canteen", "BusinessTypeID": "1", "RatingKey": null, "Postcode": "L4 4HH", "lat": "53.4371821", "lon": "-2.9672763" }, "geometry": { "type": "Point", "coordinates": [ -2.967276, 53.437182 ] } },
{ "type": "Feature", "properties": { "LocalAuthorityBusinessID": "PI\/000007846", "BusinessName": "Abbey Lawns Care Home", "BusinessAddress": " 3 Anfield Road Liverpool L4 0TD UK", "BusinessType": "Hospitals\/Childcare\/Caring Premises", "BusinessTypeID": "5", "RatingKey": null, "Postcode": "L4 0TD", "lat": "53.4330009", "lon": "-2.9678733" }, "geometry": { "type": "Point", "coordinates": [ -2.967873, 53.433001 ] } },
{ "type": "Feature", "properties": { "LocalAuthorityBusinessID": "PI\/000147953", "BusinessName": "Abbey Road Wine Bar", "BusinessAddress": " 126 Stonebridge Lane Liverpool L11 9AZ UK", "BusinessType": "Pub\/bar\/nightclub", "BusinessTypeID": "7843", "RatingKey": null, "Postcode": "L11 9AZ", "lat": "53.4547069", "lon": "-2.9066625" }, "geometry": { "type": "Point", "coordinates": [ -2.906662, 53.454707 ] } },
{ "type": "Feature", "properties": { "LocalAuthorityBusinessID": "PI\/000246476", "BusinessName": "ABC Woolton Day Nursery", "BusinessAddress": " 31 Woolton Street Liverpool L25 5NH UK", "BusinessType": "Hospitals\/Childcare\/Caring Premises", "BusinessTypeID": "5", "RatingKey": null, "Postcode": "L25 5NH", "lat": "53.3749477", "lon": "-2.8665709" }, "geometry": { "type": "Point", "coordinates": [ -2.866571, 53.374948 ] } },
{ "type": "Feature", "properties": { "LocalAuthorityBusinessID": "75886", "BusinessName": "Abditory", "BusinessAddress": " 22 Queen Avenue Liverpool L2 4TX UK", "BusinessType": "Restaurant\/Cafe\/Canteen", "BusinessTypeID": "1", "RatingKey": null, "Postcode": "L2 4TX", "lat": "53.4068603", "lon": "-2.9902661" }, "geometry": { "type": "Point", "coordinates": [ -2.990266, 53.40686 ] } },
{ "type": "Feature", "properties": { "LocalAuthorityBusinessID": "PI\/000098047", "BusinessName": "Abdullah & Sons", "BusinessAddress": " 165 Lodge Lane Liverpool L8 0QQ UK", "BusinessType": "Retailers - other", "BusinessTypeID": "4613", "RatingKey": null, "Postcode": "L8 0QQ", "lat": "53.3921386", "lon": "-2.9494293" }, "geometry": { "type": "Point", "coordinates": [ -2.949429, 53.392139 ] } },
{ "type": "Feature", "properties": { "LocalAuthorityBusinessID": "18911", "BusinessName": "Abi Mini Market", "BusinessAddress": " 41 - 43 Warwick Street Liverpool L8 6TG UK", "BusinessType": "Retailers - other", "BusinessTypeID": "4613", "RatingKey": null, "Postcode": "L8 6TG", "lat": "53.3902834", "lon": "-2.9725246" }, "geometry": { "type": "Point", "coordinates": [ -2.972525, 53.390283 ] } },
{ "type": "Feature", "properties": { "LocalAuthorityBusinessID": "PI\/000257554", "BusinessName": "Absolutely Catering at Fazakerly", "BusinessAddress": " Fazakerley Primary School Formosa Drive Liverpool L10 7LD UK", "BusinessType": "School\/college\/university", "BusinessTypeID": "7845", "RatingKey": null, "Postcode": "L10 7LD", "lat": "53.4677505", "lon": "-2.922934308723836" }, "geometry": { "type": "Point", "coordinates": [ -2.922934, 53.467751 ] } },
{ "type": "Feature", "properties": { "LocalAuthorityBusinessID": "PI\/000257587", "BusinessName": "Absolutely Catering at Good Help RC", "BusinessAddress": " Our Lady Of Good Help Catholic Primary School South Drive Wavertree Liverpool L15 8JL UK", "BusinessType": "School\/college\/university", "BusinessTypeID": "7845", "RatingKey": null, "Postcode": "L15 8JL", "lat": "53.39980635000001", "lon": "-2.917208372341717" }, "geometry": { "type": "Point", "coordinates": [ -2.917208, 53.399806 ] } },
{ "type": "Feature", "properties": { "LocalAuthorityBusinessID": "PI\/000257562", "BusinessName": "Absolutely Catering at Holy Name", "BusinessAddress": " Holy Name Catholic Primary School Moss Pits Lane Liverpool L10 9LG UK", "BusinessType": "School\/college\/university", "BusinessTypeID": "7845", "RatingKey": null, "Postcode": "L10 9LG", "lat": "53.4675908", "lon": "-2.929394662120124" }, "geometry": { "type": "Point", "coordinates": [ -2.929395, 53.467591 ] } },
{ "type": "Feature", "properties": { "LocalAuthorityBusinessID": "PI\/000257564", "BusinessName": "Absolutely Catering at Holy Trinity", "BusinessAddress": " Holy Trinity Catholic Primary School Banks Road Liverpool L19 8JY UK", "BusinessType": "School\/college\/university", "BusinessTypeID": "7845", "RatingKey": null, "Postcode": "L19 8JY", "lat": "53.3492755", "lon": "-2.891415306448933" }, "geometry": { "type": "Point", "coordinates": [ -2.891415, 53.349275 ] } },
{ "type": "Feature", "properties": { "LocalAuthorityBusinessID": "71017", "BusinessName": "Absolutely Catering at Northcote Primary School", "BusinessAddress": " Northcote Primary School Cavendish Drive Liverpool L9 1HW UK", "BusinessType": "School\/college\/university", "BusinessTypeID": "7845", "RatingKey": null, "Postcode": "L9 1HW", "lat": "53.45051385", "lon": "-2.963037662125639" }, "geometry": { "type": "Point", "coordinates": [ -2.963038, 53.450514 ] } },
{ "type": "Feature", "properties": { "LocalAuthorityBusinessID": "PI\/000263931", "BusinessName": "Absolutely Catering at St Anthony", "BusinessAddress": " St Anthony Of Padua Catholic Primary School Sands Road Liverpool L18 8BD UK", "BusinessType": "School\/college\/university", "BusinessTypeID": "7845", "RatingKey": null, "Postcode": "L18 8BD", "lat": "53.38246225", "lon": "-2.919006160642719" }, "geometry": { "type": "Point", "coordinates": [ -2.919006, 53.382462 ] } },
{ "type": "Feature", "properties": { "LocalAuthorityBusinessID": "PI\/000257585", "BusinessName": "Absolutely Catering at St Swithins", "BusinessAddress": " Our Lady And St Swithins Catholic Primary School Parkstile Lane Liverpool L11 0BQ UK", "BusinessType": "School\/college\/university", "BusinessTypeID": "7845", "RatingKey": null, "Postcode": "L11 0BQ", "lat": "53.4590922", "lon": "-2.899328986612088" }, "geometry": { "type": "Point", "coordinates": [ -2.899329, 53.459092 ] } },
{ "type": "Feature", "properties": { "LocalAuthorityBusinessID": "832805", "BusinessName": "Acropolis", "BusinessAddress": " 7A West Derby Village Liverpool L12 5HJ UK", "BusinessType": "Restaurant\/Cafe\/Canteen", "BusinessTypeID": "1", "RatingKey": null, "Postcode": "L12 5HJ", "lat": "53.432931", "lon": "-2.9105719" }, "geometry": { "type": "Point", "coordinates": [ -2.910572, 53.432931 ] } },
{ "type": "Feature", "properties": { "LocalAuthorityBusinessID": "PI\/000255001", "BusinessName": "Adagio Liverpool City", "BusinessAddress": " Adagio Aparthotel, 1 Fairclough Street Liverpool L1 1FS UK", "BusinessType": "Hotel\/bed & breakfast\/guest house", "BusinessTypeID": "7842", "RatingKey": null, "Postcode": "L1 1FS", "lat": "53.4048461", "lon": "-2.9793412" }, "geometry": { "type": "Point", "coordinates": [ -2.979341, 53.404846 ] } },
{ "type": "Feature", "properties": { "LocalAuthorityBusinessID": "PI\/000005723", "BusinessName": "Adams Apple", "BusinessAddress": " 132 - 134 Allerton Road Mossley Hill Liverpool L18 2DG UK", "BusinessType": "Retailers - other", "BusinessTypeID": "4613", "RatingKey": null, "Postcode": "L18 2DG", "lat": "53.386299", "lon": "-2.9087179" }, "geometry": { "type": "Point", "coordinates": [ -2.908718, 53.386299 ] } },
{ "type": "Feature", "properties": { "LocalAuthorityBusinessID": "PI\/000244948", "BusinessName": "Adams Newsagents", "BusinessAddress": " 115 Prescot Road Fairfield Liverpool L7 0LB UK", "BusinessType": "Retailers - other", "BusinessTypeID": "4613", "RatingKey": null, "Postcode": "L7 0LB", "lat": "53.4135462", "lon": "-2.9370667" }, "geometry": { "type": "Point", "coordinates": [ -2.937067, 53.413546 ] } },
{ "type": "Feature", "properties": { "LocalAuthorityBusinessID": "PI\/000078930", "BusinessName": "Adams Stores", "BusinessAddress": " 172 High Park Street Liverpool L8 3UQ UK", "BusinessType": "Retailers - other", "BusinessTypeID": "4613", "RatingKey": null, "Postcode": "L8 3UQ", "lat": "53.3892022", "lon": "-2.959826" }, "geometry": { "type": "Point", "coordinates": [ -2.959826, 53.389202 ] } },
{ "type": "Feature", "properties": { "LocalAuthorityBusinessID": "PI\/000260478", "BusinessName": "Aden News", "BusinessAddress": " 430 Prescot Road Old Swan Liverpool L13 3DA UK", "BusinessType": "Retailers - other", "BusinessTypeID": "4613", "RatingKey": null, "Postcode": "L13 3DA", "lat": "53.4136441", "lon": "-2.9122641" }, "geometry": { "type": "Point", "coordinates": [ -2.912264, 53.413644 ] } },
{ "type": "Feature", "properties": { "LocalAuthorityBusinessID": "71168", "BusinessName": "ADMIRAL CASINO", "BusinessAddress": " 14 Richmond Street Liverpool L1 1EF UK", "BusinessType": "Retailers - other", "BusinessTypeID": "4613", "RatingKey": null, "Postcode": "L1 1EF", "lat": "53.4065381", "lon": "-2.9844744" }, "geometry": { "type": "Point", "coordinates": [ -2.984474, 53.406538 ] } },
{ "type": "Feature", "properties": { "LocalAuthorityBusinessID": "PI\/000273775", "BusinessName": "Aether by The Alchemist", "BusinessAddress": " 8 - 9 Kenyon's Steps Liverpool L1 3DF UK", "BusinessType": "Pub\/bar\/nightclub", "BusinessTypeID": "7843", "RatingKey": null, "Postcode": "L1 3DF", "lat": "53.4029605", "lon": "-2.9896652" }, "geometry": { "type": "Point", "coordinates": [ -2.989665, 53.40296 ] } },
{ "type": "Feature", "properties": { "LocalAuthorityBusinessID": "77831", "BusinessName": "African Food Store", "BusinessAddress": " 68 Prescot Road Fairfield Liverpool L7 0JA UK", "BusinessType": "Retailers - other", "BusinessTypeID": "4613", "RatingKey": null, "Postcode": "L7 0JA", "lat": "53.4135462", "lon": "-2.9370667" }, "geometry": { "type": "Point", "coordinates": [ -2.937067, 53.413546 ] } },
{ "type": "Feature", "properties": { "LocalAuthorityBusinessID": "67710", "BusinessName": "Age Concern Liverpool and Sefton", "BusinessAddress": " 219 Lower Breck Road Liverpool L6 0AE UK", "BusinessType": "Hospitals\/Childcare\/Caring Premises", "BusinessTypeID": "5", "RatingKey": null, "Postcode": "L6 0AE", "lat": "53.4272585", "lon": "-2.9495388" }, "geometry": { "type": "Point", "coordinates": [ -2.949539, 53.427259 ] } },
{ "type": "Feature", "properties": { "LocalAuthorityBusinessID": "79254", "BusinessName": "aigburth arms", "BusinessAddress": " Victoria, 1 Victoria Road Aigburth Liverpool L17 0DL UK", "BusinessType": "Restaurant\/Cafe\/Canteen", "BusinessTypeID": "1", "RatingKey": null, "Postcode": "L17 0DL", "lat": "53.37614240000001", "lon": "-2.931642448898733" }, "geometry": { "type": "Point", "coordinates": [ -2.931642, 53.376142 ] } },
{ "type": "Feature", "properties": { "LocalAuthorityBusinessID": "PI\/000264860", "BusinessName": "Aigburth Hall Nurseries", "BusinessAddress": " 5 Aigburth Hall Avenue Liverpool L19 9EA UK", "BusinessType": "Restaurant\/Cafe\/Canteen", "BusinessTypeID": "1", "RatingKey": null, "Postcode": "L19 9EA", "lat": "53.3650274", "lon": "-2.9180136" }, "geometry": { "type": "Point", "coordinates": [ -2.918014, 53.365027 ] } },
{ "type": "Feature", "properties": { "LocalAuthorityBusinessID": "PI\/000146612", "BusinessName": "Aintree Day Nursery", "BusinessAddress": " 2 Solar Road Liverpool L9 9AS UK", "BusinessType": "Hospitals\/Childcare\/Caring Premises", "BusinessTypeID": "5", "RatingKey": null, "Postcode": "L9 9AS", "lat": "53.4644722", "lon": "-2.9550328" }, "geometry": { "type": "Point", "coordinates": [ -2.955033, 53.464472 ] } },
{ "type": "Feature", "properties": { "LocalAuthorityBusinessID": "71892", "BusinessName": "Air Unlimited", "BusinessAddress": " 4 Blenheim Way Liverpool L24 1YH UK", "BusinessType": "Restaurant\/Cafe\/Canteen", "BusinessTypeID": "1", "RatingKey": null, "Postcode": "L24 1YH", "lat": "53.3889337", "lon": "-2.9198633" }, "geometry": { "type": "Point", "coordinates": [ -2.919863, 53.388934 ] } },
{ "type": "Feature", "properties": { "LocalAuthorityBusinessID": "77957", "BusinessName": "AJ", "BusinessAddress": " 42 Broad Lane Norris Green Liverpool L11 1AJ UK", "BusinessType": "Takeaway\/sandwich shop", "BusinessTypeID": "7844", "RatingKey": null, "Postcode": "L11 1AJ", "lat": "53.4406749", "lon": "-2.9281699" }, "geometry": { "type": "Point", "coordinates": [ -2.92817, 53.440675 ] } },
{ "type": "Feature", "properties": { "LocalAuthorityBusinessID": "PI\/000273071", "BusinessName": "Aj News", "BusinessAddress": " 162 - 164 Townsend Lane Clubmoor Liverpool L13 9DN UK", "BusinessType": "Retailers - other", "BusinessTypeID": "4613", "RatingKey": null, "Postcode": "L13 9DN", "lat": "53.4354026", "lon": "-2.9339465" }, "geometry": { "type": "Point", "coordinates": [ -2.933946, 53.435403 ] } },
{ "type": "Feature", "properties": { "LocalAuthorityBusinessID": "PI\/000247277", "BusinessName": "Akshaya", "BusinessAddress": " 290A Kensington Liverpool L7 2RN UK", "BusinessType": "Restaurant\/Cafe\/Canteen", "BusinessTypeID": "1", "RatingKey": null, "Postcode": "L7 2RN", "lat": "53.41191285", "lon": "-2.946909364154412" }, "geometry": { "type": "Point", "coordinates": [ -2.946909, 53.411913 ] } },
{ "type": "Feature", "properties": { "LocalAuthorityBusinessID": "PI\/000163236", "BusinessName": "Al Amin Tandoori", "BusinessAddress": " 170 Warbreck Moor Liverpool L9 0HZ UK", "BusinessType": "Takeaway\/sandwich shop", "BusinessTypeID": "7844", "RatingKey": null, "Postcode": "L9 0HZ", "lat": "53.4671733", "lon": "-2.9559232" }, "geometry": { "type": "Point", "coordinates": [ -2.955923, 53.467173 ] } },
{ "type": "Feature", "properties": { "LocalAuthorityBusinessID": "PI\/000236186", "BusinessName": "Al Baraka", "BusinessAddress": " 47A Granby Street Liverpool L8 2TU UK", "BusinessType": "Retailers - other", "BusinessTypeID": "4613", "RatingKey": null, "Postcode": "L8 2TU", "lat": "53.3934089", "lon": "-2.9572305" }, "geometry": { "type": "Point", "coordinates": [ -2.957231, 53.393409 ] } },
{ "type": "Feature", "properties": { "LocalAuthorityBusinessID": "PI\/000036830", "BusinessName": "Al Baraka Indian Takeaway", "BusinessAddress": " 241A County Road Liverpool L4 5PE UK", "BusinessType": "Takeaway\/sandwich shop", "BusinessTypeID": "7844", "RatingKey": null, "Postcode": "L4 5PE", "lat": "53.4447654", "lon": "-2.9686561" }, "geometry": { "type": "Point", "coordinates": [ -2.968656, 53.444765 ] } },
{ "type": "Feature", "properties": { "LocalAuthorityBusinessID": "PI\/000270542", "BusinessName": "Al Dente", "BusinessAddress": " 1 Lark Lane Liverpool L17 8UN UK", "BusinessType": "Restaurant\/Cafe\/Canteen", "BusinessTypeID": "1", "RatingKey": null, "Postcode": "L17 8UN", "lat": "53.3798187", "lon": "-2.9477924" }, "geometry": { "type": "Point", "coordinates": [ -2.947792, 53.379819 ] } },
{ "type": "Feature", "properties": { "LocalAuthorityBusinessID": "PI\/000144290", "BusinessName": "Al Kashs", "BusinessAddress": " 148 Smithdown Road Wavertree Liverpool L15 3JR UK", "BusinessType": "Retailers - other", "BusinessTypeID": "4613", "RatingKey": null, "Postcode": "L15 3JR", "lat": "53.3923866", "lon": "-2.9333258" }, "geometry": { "type": "Point", "coordinates": [ -2.933326, 53.392387 ] } },
{ "type": "Feature", "properties": { "LocalAuthorityBusinessID": "PI\/000271302", "BusinessName": "Al Shareef", "BusinessAddress": " 69 Mount Pleasant Liverpool L3 5TB UK", "BusinessType": "Restaurant\/Cafe\/Canteen", "BusinessTypeID": "1", "RatingKey": null, "Postcode": "L3 5TB", "lat": "53.4039002", "lon": "-2.9735908" }, "geometry": { "type": "Point", "coordinates": [ -2.973591, 53.4039 ] } },
{ "type": "Feature", "properties": { "LocalAuthorityBusinessID": "PI\/000241253", "BusinessName": "Al Soufi News", "BusinessAddress": " 341 Scotland Road Everton Liverpool L5 8TS UK", "BusinessType": "Retailers - other", "BusinessTypeID": "4613", "RatingKey": null, "Postcode": "L5 8TS", "lat": "53.4243588", "lon": "-2.9820423" }, "geometry": { "type": "Point", "coordinates": [ -2.982042, 53.424359 ] } },
{ "type": "Feature", "properties": { "LocalAuthorityBusinessID": "PI\/000273923", "BusinessName": "Aladdin", "BusinessAddress": " 8C High Street Wavertree Liverpool L15 8HG UK", "BusinessType": "Takeaway\/sandwich shop", "BusinessTypeID": "7844", "RatingKey": null, "Postcode": "L15 8HG", "lat": "53.3981248", "lon": "-2.9159961" }, "geometry": { "type": "Point", "coordinates": [ -2.915996, 53.398125 ] } },
{ "type": "Feature", "properties": { "LocalAuthorityBusinessID": "77950", "BusinessName": "Al-Ameer Restaurant", "BusinessAddress": " 99 Lodge Lane Liverpool L8 0QF UK", "BusinessType": "Restaurant\/Cafe\/Canteen", "BusinessTypeID": "1", "RatingKey": null, "Postcode": "L8 0QF", "lat": "53.3947909", "lon": "-2.9494526" }, "geometry": { "type": "Point", "coordinates": [ -2.949453, 53.394791 ] } },
{ "type": "Feature", "properties": { "LocalAuthorityBusinessID": "PI\/000237229", "BusinessName": "Alan's Kitchen", "BusinessAddress": " 29 Prescot Road Fairfield Liverpool L7 0LA UK", "BusinessType": "Takeaway\/sandwich shop", "BusinessTypeID": "7844", "RatingKey": null, "Postcode": "L7 0LA", "lat": "53.4135462", "lon": "-2.9370667" }, "geometry": { "type": "Point", "coordinates": [ -2.937067, 53.413546 ] } },
{ "type": "Feature", "properties": { "LocalAuthorityBusinessID": "6412", "BusinessName": "ALECTROFAG", "BusinessAddress": " 457 Smithdown Road Wavertree Liverpool L15 3JL UK", "BusinessType": "Retailers - other", "BusinessTypeID": "4613", "RatingKey": null, "Postcode": "L15 3JL", "lat": "53.3901124", "lon": "-2.9294395" }, "geometry": { "type": "Point", "coordinates": [ -2.929439, 53.390112 ] } },
{ "type": "Feature", "properties": { "LocalAuthorityBusinessID": "78089", "BusinessName": "Alectrofag Convenience and Vape Store", "BusinessAddress": " 15 St Oswalds Street Liverpool L13 5SA UK", "BusinessType": "Retailers - other", "BusinessTypeID": "4613", "RatingKey": null, "Postcode": "L13 5SA", "lat": "53.4124315", "lon": "-2.9146525" }, "geometry": { "type": "Point", "coordinates": [ -2.914652, 53.412431 ] } },
{ "type": "Feature", "properties": { "LocalAuthorityBusinessID": "67676", "BusinessName": "Aleppo", "BusinessAddress": " 103 Lodge Lane Liverpool L8 0QF UK", "BusinessType": "Restaurant\/Cafe\/Canteen", "BusinessTypeID": "1", "RatingKey": null, "Postcode": "L8 0QF", "lat": "53.3947909", "lon": "-2.9494526" }, "geometry": { "type": "Point", "coordinates": [ -2.949453, 53.394791 ] } },
{ "type": "Feature", "properties": { "LocalAuthorityBusinessID": "PI\/000247927", "BusinessName": "Alexa's Ices", "BusinessAddress": " 29 Town Row Liverpool L12 5HG UK", "BusinessType": "Mobile caterer", "BusinessTypeID": "7846", "RatingKey": null, "Postcode": "L12 5HG", "lat": "53.4293877", "lon": "-2.9035265" }, "geometry": { "type": "Point", "coordinates": [ -2.903526, 53.429388 ] } },
{ "type": "Feature", "properties": { "LocalAuthorityBusinessID": "78041", "BusinessName": "Alfalfa Pasta", "BusinessAddress": " 5 Gwendoline Street Liverpool L8 8EY UK", "BusinessType": "Takeaway\/sandwich shop", "BusinessTypeID": "7844", "RatingKey": null, "Postcode": "L8 8EY", "lat": "53.391275", "lon": "-2.9650237" }, "geometry": { "type": "Point", "coordinates": [ -2.965024, 53.391275 ] } },
{ "type": "Feature", "properties": { "LocalAuthorityBusinessID": "76071", "BusinessName": "Alfredo's", "BusinessAddress": " 341 Smithdown Road Wavertree Liverpool L15 3JJ UK", "BusinessType": "Takeaway\/sandwich shop", "BusinessTypeID": "7844", "RatingKey": null, "Postcode": "L15 3JJ", "lat": "53.3923866", "lon": "-2.9333258" }, "geometry": { "type": "Point", "coordinates": [ -2.933326, 53.392387 ] } },
{ "type": "Feature", "properties": { "LocalAuthorityBusinessID": "PI\/000232617", "BusinessName": "Alharf Newsagent", "BusinessAddress": " Guardian News, 47 Bold Street Liverpool L1 4EU UK", "BusinessType": "Retailers - other", "BusinessTypeID": "4613", "RatingKey": null, "Postcode": "L1 4EU", "lat": "53.4032468", "lon": "-2.9783929" }, "geometry": { "type": "Point", "coordinates": [ -2.978393, 53.403247 ] } },
{ "type": "Feature", "properties": { "LocalAuthorityBusinessID": "PI\/000261905", "BusinessName": "Alinka", "BusinessAddress": " 107 - 109 Prescot Road Fairfield Liverpool L7 0LA UK", "BusinessType": "Retailers - other", "BusinessTypeID": "4613", "RatingKey": null, "Postcode": "L7 0LA", "lat": "53.4135462", "lon": "-2.9370667" }, "geometry": { "type": "Point", "coordinates": [ -2.937067, 53.413546 ] } },
{ "type": "Feature", "properties": { "LocalAuthorityBusinessID": "PI\/000082279", "BusinessName": "Ali's Supermarket", "BusinessAddress": " 88 Holt Road Liverpool L7 2PR UK", "BusinessType": "Retailers - other", "BusinessTypeID": "4613", "RatingKey": null, "Postcode": "L7 2PR", "lat": "53.4101205", "lon": "-2.9478238" }, "geometry": { "type": "Point", "coordinates": [ -2.947824, 53.41012 ] } },
{ "type": "Feature", "properties": { "LocalAuthorityBusinessID": "PI\/000131325", "BusinessName": "All In One", "BusinessAddress": " 167 Rice Lane Liverpool L9 1AF UK", "BusinessType": "Retailers - other", "BusinessTypeID": "4613", "RatingKey": null, "Postcode": "L9 1AF", "lat": "53.4575059", "lon": "-2.9630946" }, "geometry": { "type": "Point", "coordinates": [ -2.963095, 53.457506 ] } },
{ "type": "Feature", "properties": { "LocalAuthorityBusinessID": "PI\/000131381", "BusinessName": "All In One Convenience Store", "BusinessAddress": " 205 - 207 Rice Lane Liverpool L9 1AQ UK", "BusinessType": "Retailers - other", "BusinessTypeID": "4613", "RatingKey": null, "Postcode": "L9 1AQ", "lat": "53.4575059", "lon": "-2.9630946" }, "geometry": { "type": "Point", "coordinates": [ -2.963095, 53.457506 ] } },
{ "type": "Feature", "properties": { "LocalAuthorityBusinessID": "PI\/000269649", "BusinessName": "All in One Convenience Store", "BusinessAddress": " 87 Walton Breck Road Liverpool L4 0RD UK", "BusinessType": "Retailers - other", "BusinessTypeID": "4613", "RatingKey": null, "Postcode": "L4 0RD", "lat": "53.4303641", "lon": "-2.9638834" }, "geometry": { "type": "Point", "coordinates": [ -2.963883, 53.430364 ] } },
{ "type": "Feature", "properties": { "LocalAuthorityBusinessID": "77192", "BusinessName": "Allen's Productions Ltd", "BusinessAddress": " 72 Bagot Street Liverpool L15 0HT UK", "BusinessType": "Distributors\/Transporters", "BusinessTypeID": "7", "RatingKey": null, "Postcode": "L15 0HT", "lat": "53.3976057", "lon": "-2.933852" }, "geometry": { "type": "Point", "coordinates": [ -2.933852, 53.397606 ] } },
{ "type": "Feature", "properties": { "LocalAuthorityBusinessID": "PI\/000063676", "BusinessName": "Allerton Fish Bar", "BusinessAddress": " 204 Greenhill Road Mossley Hill Liverpool L18 7HW UK", "BusinessType": "Takeaway\/sandwich shop", "BusinessTypeID": "7844", "RatingKey": null, "Postcode": "L18 7HW", "lat": "53.3678634", "lon": "-2.9006288" }, "geometry": { "type": "Point", "coordinates": [ -2.900629, 53.367863 ] } },
{ "type": "Feature", "properties": { "LocalAuthorityBusinessID": "PI\/000270660", "BusinessName": "Allerton Hall Farm", "BusinessAddress": " Allerton Hall Springwood Avenue Hunts Cross Liverpool L25 7UN UK", "BusinessType": "Restaurant\/Cafe\/Canteen", "BusinessTypeID": "1", "RatingKey": null, "Postcode": "L25 7UN", "lat": "53.3633707", "lon": "-2.879252631906215" }, "geometry": { "type": "Point", "coordinates": [ -2.879253, 53.363371 ] } },
{ "type": "Feature", "properties": { "LocalAuthorityBusinessID": "286", "BusinessName": "Allerton Mini Mart", "BusinessAddress": " 186 Allerton Road Mossley Hill Liverpool L18 5HU UK", "BusinessType": "Retailers - other", "BusinessTypeID": "4613", "RatingKey": null, "Postcode": "L18 5HU", "lat": "53.3818475", "lon": "-2.9054783" }, "geometry": { "type": "Point", "coordinates": [ -2.905478, 53.381847 ] } },
{ "type": "Feature", "properties": { "LocalAuthorityBusinessID": "PI\/000271001", "BusinessName": "Alma de Cuba", "BusinessAddress": " Alma Da Cuba Seel Street Liverpool L1 4BH UK", "BusinessType": "Restaurant\/Cafe\/Canteen", "BusinessTypeID": "1", "RatingKey": null, "Postcode": "L1 4BH", "lat": "53.4018492", "lon": "-2.9789763" }, "geometry": { "type": "Point", "coordinates": [ -2.978976, 53.401849 ] } },
{ "type": "Feature", "properties": { "LocalAuthorityBusinessID": "PI\/000099669", "BusinessName": "Almond", "BusinessAddress": " 16 - 18 Mill Lane West Derby Liverpool L12 7JB UK", "BusinessType": "Restaurant\/Cafe\/Canteen", "BusinessTypeID": "1", "RatingKey": null, "Postcode": "L12 7JB", "lat": "53.4313207", "lon": "-2.9105789" }, "geometry": { "type": "Point", "coordinates": [ -2.910579, 53.431321 ] } },
{ "type": "Feature", "properties": { "LocalAuthorityBusinessID": "PI\/000271763", "BusinessName": "Almonds Catering Supplies", "BusinessAddress": " 5 Sugarbrook Drive Liverpool L11 2BD UK", "BusinessType": "Distributors\/Transporters", "BusinessTypeID": "7", "RatingKey": null, "Postcode": "L11 2BD", "lat": "53.4585363", "lon": "-2.9137634" }, "geometry": { "type": "Point", "coordinates": [ -2.913763, 53.458536 ] } },
{ "type": "Feature", "properties": { "LocalAuthorityBusinessID": "PI\/000006153", "BusinessName": "Almonds Green Service Station", "BusinessAddress": " 111 Almonds Green Liverpool L12 5HR UK", "BusinessType": "Retailers - other", "BusinessTypeID": "4613", "RatingKey": null, "Postcode": "L12 5HR", "lat": "53.435105", "lon": "-2.9147422" }, "geometry": { "type": "Point", "coordinates": [ -2.914742, 53.435105 ] } },
{ "type": "Feature", "properties": { "LocalAuthorityBusinessID": "PI\/000252587", "BusinessName": "Almost Famous", "BusinessAddress": " 11 - 13 Parr Street Liverpool L1 4JN UK", "BusinessType": "Restaurant\/Cafe\/Canteen", "BusinessTypeID": "1", "RatingKey": null, "Postcode": "L1 4JN", "lat": "53.4011917", "lon": "-2.9784834" }, "geometry": { "type": "Point", "coordinates": [ -2.978483, 53.401192 ] } },
{ "type": "Feature", "properties": { "LocalAuthorityBusinessID": "77946", "BusinessName": "Al-Rahma Food Store", "BusinessAddress": " 47 Granby Street Liverpool L8 2TU UK", "BusinessType": "Retailers - other", "BusinessTypeID": "4613", "RatingKey": null, "Postcode": "L8 2TU", "lat": "53.3934089", "lon": "-2.9572305" }, "geometry": { "type": "Point", "coordinates": [ -2.957231, 53.393409 ] } },
{ "type": "Feature", "properties": { "LocalAuthorityBusinessID": "PI\/000270842", "BusinessName": "Alta Super News", "BusinessAddress": " 648 Prescot Road Old Swan Liverpool L13 5XE UK", "BusinessType": "Retailers - other", "BusinessTypeID": "4613", "RatingKey": null, "Postcode": "L13 5XE", "lat": "53.4136441", "lon": "-2.9122641" }, "geometry": { "type": "Point", "coordinates": [ -2.912264, 53.413644 ] } },
{ "type": "Feature", "properties": { "LocalAuthorityBusinessID": "PI\/000269470", "BusinessName": "Amakura Coffee Shop", "BusinessAddress": " 1 - 3 Booker Avenue Liverpool L18 4QY UK", "BusinessType": "Restaurant\/Cafe\/Canteen", "BusinessTypeID": "1", "RatingKey": null, "Postcode": "L18 4QY", "lat": "53.3709969", "lon": "-2.9026187" }, "geometry": { "type": "Point", "coordinates": [ -2.902619, 53.370997 ] } },
{ "type": "Feature", "properties": { "LocalAuthorityBusinessID": "PI\/000126405", "BusinessName": "Amalfi Pizza", "BusinessAddress": " 80 Priory Road Liverpool L4 2SH UK", "BusinessType": "Takeaway\/sandwich shop", "BusinessTypeID": "7844", "RatingKey": null, "Postcode": "L4 2SH", "lat": "53.4306096", "lon": "-2.951905" }, "geometry": { "type": "Point", "coordinates": [ -2.951905, 53.43061 ] } },
{ "type": "Feature", "properties": { "LocalAuthorityBusinessID": "PI\/000252681", "BusinessName": "Amalia", "BusinessAddress": " 2 Campbell Square Liverpool L1 5FB UK", "BusinessType": "Restaurant\/Cafe\/Canteen", "BusinessTypeID": "1", "RatingKey": null, "Postcode": "L1 5FB", "lat": "53.40188360000001", "lon": "-2.984593250238987" }, "geometry": { "type": "Point", "coordinates": [ -2.984593, 53.401884 ] } },
{ "type": "Feature", "properties": { "LocalAuthorityBusinessID": "71685", "BusinessName": "Ambassador", "BusinessAddress": " 58 - 60 Lodge Lane Liverpool L8 0QL UK", "BusinessType": "Restaurant\/Cafe\/Canteen", "BusinessTypeID": "1", "RatingKey": null, "Postcode": "L8 0QL", "lat": "53.3947909", "lon": "-2.9494526" }, "geometry": { "type": "Point", "coordinates": [ -2.949453, 53.394791 ] } },
{ "type": "Feature", "properties": { "LocalAuthorityBusinessID": "PI\/000265392", "BusinessName": "American Pizza Slice", "BusinessAddress": " 122 Bold Street Liverpool L1 4JA UK", "BusinessType": "Takeaway\/sandwich shop", "BusinessTypeID": "7844", "RatingKey": null, "Postcode": "L1 4JA", "lat": "53.4024783", "lon": "-2.9770563" }, "geometry": { "type": "Point", "coordinates": [ -2.977056, 53.402478 ] } },
{ "type": "Feature", "properties": { "LocalAuthorityBusinessID": "PI\/000165594", "BusinessName": "American Pizza Slice", "BusinessAddress": " 52 Whitechapel Liverpool L1 6EG UK", "BusinessType": "Takeaway\/sandwich shop", "BusinessTypeID": "7844", "RatingKey": null, "Postcode": "L1 6EG", "lat": "53.4082456", "lon": "-2.9835124" }, "geometry": { "type": "Point", "coordinates": [ -2.983512, 53.408246 ] } },
{ "type": "Feature", "properties": { "LocalAuthorityBusinessID": "75472", "BusinessName": "Amigos", "BusinessAddress": " 41 Warbreck Moor Liverpool L9 4RW UK", "BusinessType": "Takeaway\/sandwich shop", "BusinessTypeID": "7844", "RatingKey": null, "Postcode": "L9 4RW", "lat": "53.4642754", "lon": "-2.9583672" }, "geometry": { "type": "Point", "coordinates": [ -2.958367, 53.464275 ] } },
{ "type": "Feature", "properties": { "LocalAuthorityBusinessID": "PI\/000266259", "BusinessName": "Amo Coffee House", "BusinessAddress": " 60 Mill Lane West Derby Liverpool L12 7JB UK", "BusinessType": "Restaurant\/Cafe\/Canteen", "BusinessTypeID": "1", "RatingKey": null, "Postcode": "L12 7JB", "lat": "53.4313207", "lon": "-2.9105789" }, "geometry": { "type": "Point", "coordinates": [ -2.910579, 53.431321 ] } },
{ "type": "Feature", "properties": { "LocalAuthorityBusinessID": "77857", "BusinessName": "Amy's Pizza", "BusinessAddress": " 201A Townsend Lane Clubmoor Liverpool L13 9DG UK", "BusinessType": "Takeaway\/sandwich shop", "BusinessTypeID": "7844", "RatingKey": null, "Postcode": "L13 9DG", "lat": "53.4355176", "lon": "-2.9341115" }, "geometry": { "type": "Point", "coordinates": [ -2.934112, 53.435518 ] } },
{ "type": "Feature", "properties": { "LocalAuthorityBusinessID": "71998", "BusinessName": "Anam's Kitchen", "BusinessAddress": " 98 Lodge Lane Liverpool L8 0QN UK", "BusinessType": "Restaurant\/Cafe\/Canteen", "BusinessTypeID": "1", "RatingKey": null, "Postcode": "L8 0QN", "lat": "53.3947909", "lon": "-2.9494526" }, "geometry": { "type": "Point", "coordinates": [ -2.949453, 53.394791 ] } },
{ "type": "Feature", "properties": { "LocalAuthorityBusinessID": "PI\/000272653", "BusinessName": "Anar Turkish BBQ", "BusinessAddress": " 544 - 548 Aigburth Road Cressington Liverpool L19 3QG UK", "BusinessType": "Restaurant\/Cafe\/Canteen", "BusinessTypeID": "1", "RatingKey": null, "Postcode": "L19 3QG", "lat": "53.3652029", "lon": "-2.9207984" }, "geometry": { "type": "Point", "coordinates": [ -2.920798, 53.365203 ] } },
{ "type": "Feature", "properties": { "LocalAuthorityBusinessID": "75812", "BusinessName": "Anar Turkish BBQ Restaurant", "BusinessAddress": " 130 Prescot Road Fairfield Liverpool L7 0JB UK", "BusinessType": "Restaurant\/Cafe\/Canteen", "BusinessTypeID": "1", "RatingKey": null, "Postcode": "L7 0JB", "lat": "53.4135462", "lon": "-2.9370667" }, "geometry": { "type": "Point", "coordinates": [ -2.937067, 53.413546 ] } },
{ "type": "Feature", "properties": { "LocalAuthorityBusinessID": "PI\/000086543", "BusinessName": "Andy's Fish & Chips", "BusinessAddress": " 18 Lark Lane Liverpool L17 8US UK", "BusinessType": "Takeaway\/sandwich shop", "BusinessTypeID": "7844", "RatingKey": null, "Postcode": "L17 8US", "lat": "53.3798187", "lon": "-2.9477924" }, "geometry": { "type": "Point", "coordinates": [ -2.947792, 53.379819 ] } },
{ "type": "Feature", "properties": { "LocalAuthorityBusinessID": "PI\/000247486", "BusinessName": "Anfield Cafe", "BusinessAddress": " 81 Anfield Road Liverpool L4 0TJ UK", "BusinessType": "Restaurant\/Cafe\/Canteen", "BusinessTypeID": "1", "RatingKey": null, "Postcode": "L4 0TJ", "lat": "53.4298063", "lon": "-2.9567881" }, "geometry": { "type": "Point", "coordinates": [ -2.956788, 53.429806 ] } },
{ "type": "Feature", "properties": { "LocalAuthorityBusinessID": "PI\/000007937", "BusinessName": "Anfield News", "BusinessAddress": " 89 - 91 Anfield Road Liverpool L4 0TJ UK", "BusinessType": "Retailers - other", "BusinessTypeID": "4613", "RatingKey": null, "Postcode": "L4 0TJ", "lat": "53.4298063", "lon": "-2.9567881" }, "geometry": { "type": "Point", "coordinates": [ -2.956788, 53.429806 ] } },
{ "type": "Feature", "properties": { "LocalAuthorityBusinessID": "71769", "BusinessName": "Anfield Newsagent", "BusinessAddress": " 290 Breck Road Everton Liverpool L5 6QB UK", "BusinessType": "Retailers - other", "BusinessTypeID": "4613", "RatingKey": null, "Postcode": "L5 6QB", "lat": "53.4246399", "lon": "-2.9545136" }, "geometry": { "type": "Point", "coordinates": [ -2.954514, 53.42464 ] } },
{ "type": "Feature", "properties": { "LocalAuthorityBusinessID": "78050", "BusinessName": "Anfield Road Food Stall", "BusinessAddress": " 23 Anfield Road Liverpool L4 0TE UK", "BusinessType": "Mobile caterer", "BusinessTypeID": "7846", "RatingKey": null, "Postcode": "L4 0TE", "lat": "53.4332616", "lon": "-2.9640891" }, "geometry": { "type": "Point", "coordinates": [ -2.964089, 53.433262 ] } },
{ "type": "Feature", "properties": { "LocalAuthorityBusinessID": "75506", "BusinessName": "Angel Restaurant", "BusinessAddress": " 52 Hanover Street Liverpool L1 4AF UK", "BusinessType": "Restaurant\/Cafe\/Canteen", "BusinessTypeID": "1", "RatingKey": null, "Postcode": "L1 4AF", "lat": "53.4041681", "lon": "-2.9823263" }, "geometry": { "type": "Point", "coordinates": [ -2.982326, 53.404168 ] } },
{ "type": "Feature", "properties": { "LocalAuthorityBusinessID": "77618", "BusinessName": "Angels News and Convenience Store", "BusinessAddress": " 7 - 9 Selwyn Street Liverpool L4 3TN UK", "BusinessType": "Retailers - other", "BusinessTypeID": "4613", "RatingKey": null, "Postcode": "L4 3TN", "lat": "53.4420599", "lon": "-2.977306" }, "geometry": { "type": "Point", "coordinates": [ -2.977306, 53.44206 ] } },
{ "type": "Feature", "properties": { "LocalAuthorityBusinessID": "PI\/000041072", "BusinessName": "Angels Paradise", "BusinessAddress": " 18 Cumberland Street Liverpool L1 6BU UK", "BusinessType": "Pub\/bar\/nightclub", "BusinessTypeID": "7843", "RatingKey": null, "Postcode": "L1 6BU", "lat": "53.4084095", "lon": "-2.9874875" }, "geometry": { "type": "Point", "coordinates": [ -2.987487, 53.408409 ] } },
{ "type": "Feature", "properties": { "LocalAuthorityBusinessID": "76003", "BusinessName": "Angies Jamaican Cuisine", "BusinessAddress": " 33 Holt Road Liverpool L7 2PL UK", "BusinessType": "Restaurant\/Cafe\/Canteen", "BusinessTypeID": "1", "RatingKey": null, "Postcode": "L7 2PL", "lat": "53.4101205", "lon": "-2.9478238" }, "geometry": { "type": "Point", "coordinates": [ -2.947824, 53.41012 ] } },
{ "type": "Feature", "properties": { "LocalAuthorityBusinessID": "76771", "BusinessName": "Anmol Indian Takeaway", "BusinessAddress": " 204 East Prescot Road Liverpool L14 5NG UK", "BusinessType": "Takeaway\/sandwich shop", "BusinessTypeID": "7844", "RatingKey": null, "Postcode": "L14 5NG", "lat": "53.4177023", "lon": "-2.8941224" }, "geometry": { "type": "Point", "coordinates": [ -2.894122, 53.417702 ] } },
{ "type": "Feature", "properties": { "LocalAuthorityBusinessID": "PI\/000024655", "BusinessName": "Antonis Bakery", "BusinessAddress": " 43 Bridgewater Street Liverpool L1 0AR UK", "BusinessType": "Manufacturers\/packers", "BusinessTypeID": "7839", "RatingKey": null, "Postcode": "L1 0AR", "lat": "53.3964982", "lon": "-2.9824509" }, "geometry": { "type": "Point", "coordinates": [ -2.982451, 53.396498 ] } },
{ "type": "Feature", "properties": { "LocalAuthorityBusinessID": "PI\/000273336", "BusinessName": "Appebite", "BusinessAddress": " 21 Woolton Street Liverpool L25 5NH UK", "BusinessType": "Restaurant\/Cafe\/Canteen", "BusinessTypeID": "1", "RatingKey": null, "Postcode": "L25 5NH", "lat": "53.3749477", "lon": "-2.8665709" }, "geometry": { "type": "Point", "coordinates": [ -2.866571, 53.374948 ] } },
{ "type": "Feature", "properties": { "LocalAuthorityBusinessID": "PI\/000263623", "BusinessName": "Aramark", "BusinessAddress": " 380 Prescot Road Old Swan Liverpool L13 3DA UK", "BusinessType": "Other catering premises", "BusinessTypeID": "7841", "RatingKey": null, "Postcode": "L13 3DA", "lat": "53.4136441", "lon": "-2.9122641" }, "geometry": { "type": "Point", "coordinates": [ -2.912264, 53.413644 ] } },
{ "type": "Feature", "properties": { "LocalAuthorityBusinessID": "PI\/000273286", "BusinessName": "Arbela", "BusinessAddress": " 36 Lawrence Road Liverpool L15 0EG UK", "BusinessType": "Retailers - other", "BusinessTypeID": "4613", "RatingKey": null, "Postcode": "L15 0EG", "lat": "53.3953392", "lon": "-2.9289792" }, "geometry": { "type": "Point", "coordinates": [ -2.928979, 53.395339 ] } },
{ "type": "Feature", "properties": { "LocalAuthorityBusinessID": "PI\/000263919", "BusinessName": "Archies Fast Food And Shakes", "BusinessAddress": " 38 Ranelagh Street Liverpool L1 1QE UK", "BusinessType": "Restaurant\/Cafe\/Canteen", "BusinessTypeID": "1", "RatingKey": null, "Postcode": "L1 1QE", "lat": "53.4051723", "lon": "-2.979166" }, "geometry": { "type": "Point", "coordinates": [ -2.979166, 53.405172 ] } },
{ "type": "Feature", "properties": { "LocalAuthorityBusinessID": "76087", "BusinessName": "Argyles Coffee and Wine Ltd", "BusinessAddress": " 15 Argyle Street Liverpool L1 5BL UK", "BusinessType": "Takeaway\/sandwich shop", "BusinessTypeID": "7844", "RatingKey": null, "Postcode": "L1 5BL", "lat": "53.4017849", "lon": "-2.9847971" }, "geometry": { "type": "Point", "coordinates": [ -2.984797, 53.401785 ] } },
{ "type": "Feature", "properties": { "LocalAuthorityBusinessID": "71209", "BusinessName": "Arket", "BusinessAddress": " 18 - 20 Paradise Street Liverpool L1 8JF UK", "BusinessType": "Restaurant\/Cafe\/Canteen", "BusinessTypeID": "1", "RatingKey": null, "Postcode": "L1 8JF", "lat": "53.4021158", "lon": "-2.9859928" }, "geometry": { "type": "Point", "coordinates": [ -2.985993, 53.402116 ] } },
{ "type": "Feature", "properties": { "LocalAuthorityBusinessID": "PI\/000247951", "BusinessName": "Arkles Public House", "BusinessAddress": " 77 Anfield Road Liverpool L4 0TJ UK", "BusinessType": "Restaurant\/Cafe\/Canteen", "BusinessTypeID": "1", "RatingKey": null, "Postcode": "L4 0TJ", "lat": "53.4298063", "lon": "-2.9567881" }, "geometry": { "type": "Point", "coordinates": [ -2.956788, 53.429806 ] } },
{ "type": "Feature", "properties": { "LocalAuthorityBusinessID": "PI\/000163197", "BusinessName": "Arong", "BusinessAddress": " 51 Warbreck Moor Liverpool L9 4RW UK", "BusinessType": "Takeaway\/sandwich shop", "BusinessTypeID": "7844", "RatingKey": null, "Postcode": "L9 4RW", "lat": "53.4642754", "lon": "-2.9583672" }, "geometry": { "type": "Point", "coordinates": [ -2.958367, 53.464275 ] } },
{ "type": "Feature", "properties": { "LocalAuthorityBusinessID": "76732", "BusinessName": "Art School Cellars", "BusinessAddress": " 2A Myrtle Street Liverpool L7 7DP UK", "BusinessType": "Pub\/bar\/nightclub", "BusinessTypeID": "7843", "RatingKey": null, "Postcode": "L7 7DP", "lat": "53.4008911", "lon": "-2.966146" }, "geometry": { "type": "Point", "coordinates": [ -2.966146, 53.400891 ] } },
{ "type": "Feature", "properties": { "LocalAuthorityBusinessID": "PI\/000267922", "BusinessName": "Artisane", "BusinessAddress": " 263 Woolton Road Childwall Liverpool L16 8NA UK", "BusinessType": "Retailers - other", "BusinessTypeID": "4613", "RatingKey": null, "Postcode": "L16 8NA", "lat": "53.3920421", "lon": "-2.9041441" }, "geometry": { "type": "Point", "coordinates": [ -2.904144, 53.392042 ] } },
{ "type": "Feature", "properties": { "LocalAuthorityBusinessID": "PI\/000265078", "BusinessName": "Artisane", "BusinessAddress": " 84A Bold Street Liverpool L1 4HR UK", "BusinessType": "Restaurant\/Cafe\/Canteen", "BusinessTypeID": "1", "RatingKey": null, "Postcode": "L1 4HR", "lat": "53.4024783", "lon": "-2.9770563" }, "geometry": { "type": "Point", "coordinates": [ -2.977056, 53.402478 ] } },
{ "type": "Feature", "properties": { "LocalAuthorityBusinessID": "PI\/000274629", "BusinessName": "As U Like It", "BusinessAddress": " 37 Moss Way Liverpool L11 0BL UK", "BusinessType": "Restaurant\/Cafe\/Canteen", "BusinessTypeID": "1", "RatingKey": null, "Postcode": "L11 0BL", "lat": "53.4568258", "lon": "-2.8974224" }, "geometry": { "type": "Point", "coordinates": [ -2.897422, 53.456826 ] } },
{ "type": "Feature", "properties": { "LocalAuthorityBusinessID": "PI\/000270197", "BusinessName": "Ash Court - HC-One", "BusinessAddress": " 19 Brookside Avenue Liverpool L14 7NB UK", "BusinessType": "Hospitals\/Childcare\/Caring Premises", "BusinessTypeID": "5", "RatingKey": null, "Postcode": "L14 7NB", "lat": "53.4168349", "lon": "-2.8898934" }, "geometry": { "type": "Point", "coordinates": [ -2.889893, 53.416835 ] } },
{ "type": "Feature", "properties": { "LocalAuthorityBusinessID": "PI\/000243939", "BusinessName": "Ashleys Cakes", "BusinessAddress": " 97 Walton Vale Liverpool L9 4SR UK", "BusinessType": "Other catering premises", "BusinessTypeID": "7841", "RatingKey": null, "Postcode": "L9 4SR", "lat": "53.4629003", "lon": "-2.9598777" }, "geometry": { "type": "Point", "coordinates": [ -2.959878, 53.4629 ] } },
{ "type": "Feature", "properties": { "LocalAuthorityBusinessID": "78395", "BusinessName": "Aska Sushi & BBQ", "BusinessAddress": " 1 St Pauls Square Liverpool L3 9SJ UK", "BusinessType": "Restaurant\/Cafe\/Canteen", "BusinessTypeID": "1", "RatingKey": null, "Postcode": "L3 9SJ", "lat": "53.4102137", "lon": "-2.9948763" }, "geometry": { "type": "Point", "coordinates": [ -2.994876, 53.410214 ] } },
{ "type": "Feature", "properties": { "LocalAuthorityBusinessID": "PI\/000227506", "BusinessName": "Asylum Link Merseyside", "BusinessAddress": " 7 Overbury Street Liverpool L7 3HJ UK", "BusinessType": "Other catering premises", "BusinessTypeID": "7841", "RatingKey": null, "Postcode": "L7 3HJ", "lat": "53.4031101", "lon": "-2.9542727" }, "geometry": { "type": "Point", "coordinates": [ -2.954273, 53.40311 ] } },
{ "type": "Feature", "properties": { "LocalAuthorityBusinessID": "PI\/000227641", "BusinessName": "Auckland College", "BusinessAddress": " Auckland College, 65 - 67 Parkfield Road Liverpool L17 4LE UK", "BusinessType": "School\/college\/university", "BusinessTypeID": "7845", "RatingKey": null, "Postcode": "L17 4LE", "lat": "53.37948160000001", "lon": "-2.948613533671167" }, "geometry": { "type": "Point", "coordinates": [ -2.948614, 53.379482 ] } },
{ "type": "Feature", "properties": { "LocalAuthorityBusinessID": "71323", "BusinessName": "Aurora", "BusinessAddress": " 118 Hunts Cross Avenue Liverpool L25 8SQ UK", "BusinessType": "Restaurant\/Cafe\/Canteen", "BusinessTypeID": "1", "RatingKey": null, "Postcode": "L25 8SQ", "lat": "53.3798865", "lon": "-2.8625532" }, "geometry": { "type": "Point", "coordinates": [ -2.862553, 53.379886 ] } },
{ "type": "Feature", "properties": { "LocalAuthorityBusinessID": "PI\/000065843", "BusinessName": "Autism Initiatives", "BusinessAddress": " 3 Grassendale Road Liverpool L19 0LY UK", "BusinessType": "Hospitals\/Childcare\/Caring Premises", "BusinessTypeID": "5", "RatingKey": null, "Postcode": "L19 0LY", "lat": "53.3601279", "lon": "-2.9148566" }, "geometry": { "type": "Point", "coordinates": [ -2.914857, 53.360128 ] } },
{ "type": "Feature", "properties": { "LocalAuthorityBusinessID": "PI\/000012855", "BusinessName": "Autism Initiatives,", "BusinessAddress": " 10 Barnsbury Road Liverpool L4 9TS UK", "BusinessType": "Hospitals\/Childcare\/Caring Premises", "BusinessTypeID": "5", "RatingKey": null, "Postcode": "L4 9TS", "lat": "53.4451239", "lon": "-2.9487852" }, "geometry": { "type": "Point", "coordinates": [ -2.948785, 53.445124 ] } },
{ "type": "Feature", "properties": { "LocalAuthorityBusinessID": "PI\/000110463", "BusinessName": "Autumn Lodge Rest Home", "BusinessAddress": " 41 Moss Lane Liverpool L9 8AD UK", "BusinessType": "Hospitals\/Childcare\/Caring Premises", "BusinessTypeID": "5", "RatingKey": null, "Postcode": "L9 8AD", "lat": "53.4624902", "lon": "-2.9666451" }, "geometry": { "type": "Point", "coordinates": [ -2.966645, 53.46249 ] } },
{ "type": "Feature", "properties": { "LocalAuthorityBusinessID": "20737", "BusinessName": "Avenues", "BusinessAddress": " 2A Maryland Street Liverpool L1 9DE UK", "BusinessType": "Pub\/bar\/nightclub", "BusinessTypeID": "7843", "RatingKey": null, "Postcode": "L1 9DE", "lat": "53.4024646", "lon": "-2.971596" }, "geometry": { "type": "Point", "coordinates": [ -2.971596, 53.402465 ] } },
{ "type": "Feature", "properties": { "LocalAuthorityBusinessID": "PI\/000041804", "BusinessName": "B & M Bargains", "BusinessAddress": " 9 - 13 County Road Liverpool L4 3QA UK", "BusinessType": "Retailers - other", "BusinessTypeID": "4613", "RatingKey": null, "Postcode": "L4 3QA", "lat": "53.4403935", "lon": "-2.9708269" }, "geometry": { "type": "Point", "coordinates": [ -2.970827, 53.440393 ] } },
{ "type": "Feature", "properties": { "LocalAuthorityBusinessID": "PI\/000254872", "BusinessName": "B G Burgers", "BusinessAddress": " 21 Goodison Road Liverpool L4 4EH UK", "BusinessType": "Takeaway\/sandwich shop", "BusinessTypeID": "7844", "RatingKey": null, "Postcode": "L4 4EH", "lat": "53.4376249", "lon": "-2.9677596" }, "geometry": { "type": "Point", "coordinates": [ -2.96776, 53.437625 ] } },
{ "type": "Feature", "properties": { "LocalAuthorityBusinessID": "PI\/000005715", "BusinessName": "B Shrigley & Son", "BusinessAddress": " 124 Allerton Road Mossley Hill Liverpool L18 2DG UK", "BusinessType": "Retailers - other", "BusinessTypeID": "4613", "RatingKey": null, "Postcode": "L18 2DG", "lat": "53.386299", "lon": "-2.9087179" }, "geometry": { "type": "Point", "coordinates": [ -2.908718, 53.386299 ] } },
{ "type": "Feature", "properties": { "LocalAuthorityBusinessID": "PI\/000242562", "BusinessName": "B&M Distribution Centre", "BusinessAddress": " The Vault Dakota Drive Liverpool L24 8RJ UK", "BusinessType": "Distributors\/Transporters", "BusinessTypeID": "7", "RatingKey": null, "Postcode": "L24 8RJ", "lat": "53.342227", "lon": "-2.88359436357455" }, "geometry": { "type": "Point", "coordinates": [ -2.883594, 53.342227 ] } },
{ "type": "Feature", "properties": { "LocalAuthorityBusinessID": "PI\/000061435", "BusinessName": "Baa Bar", "BusinessAddress": " Baa Bar, 43 - 45 Fleet Street Liverpool L1 4AR UK", "BusinessType": "Pub\/bar\/nightclub", "BusinessTypeID": "7843", "RatingKey": null, "Postcode": "L1 4AR", "lat": "53.4029376", "lon": "-2.9797436" }, "geometry": { "type": "Point", "coordinates": [ -2.979744, 53.402938 ] } },
{ "type": "Feature", "properties": { "LocalAuthorityBusinessID": "18108", "BusinessName": "Baan Food Store", "BusinessAddress": " 182 Prescot Road Fairfield Liverpool L7 0JD UK", "BusinessType": "Retailers - other", "BusinessTypeID": "4613", "RatingKey": null, "Postcode": "L7 0JD", "lat": "53.4135462", "lon": "-2.9370667" }, "geometry": { "type": "Point", "coordinates": [ -2.937067, 53.413546 ] } },
{ "type": "Feature", "properties": { "LocalAuthorityBusinessID": "PI\/000268642", "BusinessName": "Babylon Grill Cafe", "BusinessAddress": " 417 Smithdown Road Wavertree Liverpool L15 3JL UK", "BusinessType": "Restaurant\/Cafe\/Canteen", "BusinessTypeID": "1", "RatingKey": null, "Postcode": "L15 3JL", "lat": "53.3901124", "lon": "-2.9294395" }, "geometry": { "type": "Point", "coordinates": [ -2.929439, 53.390112 ] } },
{ "type": "Feature", "properties": { "LocalAuthorityBusinessID": "69567", "BusinessName": "Babylon Store", "BusinessAddress": " 48 Lawrence Road Liverpool L15 0EG UK", "BusinessType": "Retailers - other", "BusinessTypeID": "4613", "RatingKey": null, "Postcode": "L15 0EG", "lat": "53.3953392", "lon": "-2.9289792" }, "geometry": { "type": "Point", "coordinates": [ -2.928979, 53.395339 ] } },
{ "type": "Feature", "properties": { "LocalAuthorityBusinessID": "PI\/000248488", "BusinessName": "Bacchus Greek Taverna", "BusinessAddress": " 14 Waterloo Road Liverpool L3 7BB UK", "BusinessType": "Restaurant\/Cafe\/Canteen", "BusinessTypeID": "1", "RatingKey": null, "Postcode": "L3 7BB", "lat": "53.4148281", "lon": "-2.999254" }, "geometry": { "type": "Point", "coordinates": [ -2.999254, 53.414828 ] } },
{ "type": "Feature", "properties": { "LocalAuthorityBusinessID": "PI\/000258536", "BusinessName": "Bakchich", "BusinessAddress": " 54 Bold Street Liverpool L1 4EA UK", "BusinessType": "Restaurant\/Cafe\/Canteen", "BusinessTypeID": "1", "RatingKey": null, "Postcode": "L1 4EA", "lat": "53.4041639", "lon": "-2.9805104" }, "geometry": { "type": "Point", "coordinates": [ -2.98051, 53.404164 ] } },
{ "type": "Feature", "properties": { "LocalAuthorityBusinessID": "PI\/000274156", "BusinessName": "Baked By Emmielou", "BusinessAddress": " 560 Prescot Road Old Swan Liverpool L13 3DE UK", "BusinessType": "Other catering premises", "BusinessTypeID": "7841", "RatingKey": null, "Postcode": "L13 3DE", "lat": "53.4136441", "lon": "-2.9122641" }, "geometry": { "type": "Point", "coordinates": [ -2.912264, 53.413644 ] } },
{ "type": "Feature", "properties": { "LocalAuthorityBusinessID": "79209", "BusinessName": "Balcanic Style Ltd", "BusinessAddress": " 144 County Road Liverpool L4 3QW UK", "BusinessType": "Retailers - other", "BusinessTypeID": "4613", "RatingKey": null, "Postcode": "L4 3QW", "lat": "53.4428696", "lon": "-2.9707308" }, "geometry": { "type": "Point", "coordinates": [ -2.970731, 53.44287 ] } },
{ "type": "Feature", "properties": { "LocalAuthorityBusinessID": "75948", "BusinessName": "Balls Deep", "BusinessAddress": " 13 - 21 Seel Street Liverpool L1 4AU UK", "BusinessType": "Takeaway\/sandwich shop", "BusinessTypeID": "7844", "RatingKey": null, "Postcode": "L1 4AU", "lat": "53.4028145", "lon": "-2.9813028" }, "geometry": { "type": "Point", "coordinates": [ -2.981303, 53.402814 ] } },
{ "type": "Feature", "properties": { "LocalAuthorityBusinessID": "PI\/000263274", "BusinessName": "Balti Massala Indian Takeaway", "BusinessAddress": " 130 Warbreck Moor Liverpool L9 0HY UK", "BusinessType": "Restaurant\/Cafe\/Canteen", "BusinessTypeID": "1", "RatingKey": null, "Postcode": "L9 0HY", "lat": "53.4671733", "lon": "-2.9559232" }, "geometry": { "type": "Point", "coordinates": [ -2.955923, 53.467173 ] } },
{ "type": "Feature", "properties": { "LocalAuthorityBusinessID": "PI\/000255478", "BusinessName": "Baltic Bakehouse", "BusinessAddress": " 46 Bridgewater Street Liverpool L1 0AY UK", "BusinessType": "Restaurant\/Cafe\/Canteen", "BusinessTypeID": "1", "RatingKey": null, "Postcode": "L1 0AY", "lat": "53.3968102", "lon": "-2.9819973" }, "geometry": { "type": "Point", "coordinates": [ -2.981997, 53.39681 ] } },
{ "type": "Feature", "properties": { "LocalAuthorityBusinessID": "PI\/000266690", "BusinessName": "Baltic Bakehouse", "BusinessAddress": " 97 Allerton Road Mossley Hill Liverpool L18 2DD UK", "BusinessType": "Restaurant\/Cafe\/Canteen", "BusinessTypeID": "1", "RatingKey": null, "Postcode": "L18 2DD", "lat": "53.3818475", "lon": "-2.9054783" }, "geometry": { "type": "Point", "coordinates": [ -2.905478, 53.381847 ] } },
{ "type": "Feature", "properties": { "LocalAuthorityBusinessID": "78310", "BusinessName": "Baltic Fish & Chips", "BusinessAddress": " 278 Park Road Liverpool L8 4UE UK", "BusinessType": "Takeaway\/sandwich shop", "BusinessTypeID": "7844", "RatingKey": null, "Postcode": "L8 4UE", "lat": "53.3852645", "lon": "-2.9655614" }, "geometry": { "type": "Point", "coordinates": [ -2.965561, 53.385264 ] } },
{ "type": "Feature", "properties": { "LocalAuthorityBusinessID": "3845", "BusinessName": "BALTIC FLEET", "BusinessAddress": " 33A Wapping Liverpool L1 8DQ UK", "BusinessType": "Pub\/bar\/nightclub", "BusinessTypeID": "7843", "RatingKey": null, "Postcode": "L1 8DQ", "lat": "53.3982892", "lon": "-2.9868611" }, "geometry": { "type": "Point", "coordinates": [ -2.986861, 53.398289 ] } },
{ "type": "Feature", "properties": { "LocalAuthorityBusinessID": "290082", "BusinessName": "Baltic Market", "BusinessAddress": " Baltic Market Stanhope Street Liverpool L8 5RE UK", "BusinessType": "Pub\/bar\/nightclub", "BusinessTypeID": "7843", "RatingKey": null, "Postcode": "L8 5RE", "lat": "53.39315695", "lon": "-2.977935793909897" }, "geometry": { "type": "Point", "coordinates": [ -2.977936, 53.393157 ] } },
{ "type": "Feature", "properties": { "LocalAuthorityBusinessID": "78743", "BusinessName": "Baltic Social", "BusinessAddress": " 27 Parliament Street Liverpool L8 5RN UK", "BusinessType": "Restaurant\/Cafe\/Canteen", "BusinessTypeID": "1", "RatingKey": null, "Postcode": "L8 5RN", "lat": "53.3940834", "lon": "-2.9796347" }, "geometry": { "type": "Point", "coordinates": [ -2.979635, 53.394083 ] } },
{ "type": "Feature", "properties": { "LocalAuthorityBusinessID": "76703", "BusinessName": "Bao & Bap", "BusinessAddress": " 14 Rodney Street Liverpool L1 2TE UK", "BusinessType": "Restaurant\/Cafe\/Canteen", "BusinessTypeID": "1", "RatingKey": null, "Postcode": "L1 2TE", "lat": "53.4018913", "lon": "-2.973256" }, "geometry": { "type": "Point", "coordinates": [ -2.973256, 53.401891 ] } },
{ "type": "Feature", "properties": { "LocalAuthorityBusinessID": "PI\/000086549", "BusinessName": "Bar 25", "BusinessAddress": " 23 Lark Lane Liverpool L17 8UW UK", "BusinessType": "Restaurant\/Cafe\/Canteen", "BusinessTypeID": "1", "RatingKey": null, "Postcode": "L17 8UW", "lat": "53.3812437", "lon": "-2.9457544" }, "geometry": { "type": "Point", "coordinates": [ -2.945754, 53.381244 ] } },
{ "type": "Feature", "properties": { "LocalAuthorityBusinessID": "79335", "BusinessName": "Barburrito", "BusinessAddress": " 14 Paradise Street Liverpool L1 8JF UK", "BusinessType": "Restaurant\/Cafe\/Canteen", "BusinessTypeID": "1", "RatingKey": null, "Postcode": "L1 8JF", "lat": "53.4021158", "lon": "-2.9859928" }, "geometry": { "type": "Point", "coordinates": [ -2.985993, 53.402116 ] } },
{ "type": "Feature", "properties": { "LocalAuthorityBusinessID": "PI\/000263449", "BusinessName": "Bargain Beers", "BusinessAddress": " 15 Leece Street Liverpool L1 2TR UK", "BusinessType": "Retailers - other", "BusinessTypeID": "4613", "RatingKey": null, "Postcode": "L1 2TR", "lat": "53.4019986", "lon": "-2.9743215" }, "geometry": { "type": "Point", "coordinates": [ -2.974321, 53.401999 ] } },
{ "type": "Feature", "properties": { "LocalAuthorityBusinessID": "17948", "BusinessName": "Bargain Beers", "BusinessAddress": " 304 Greenhill Road Mossley Hill Liverpool L18 9SZ UK", "BusinessType": "Retailers - other", "BusinessTypeID": "4613", "RatingKey": null, "Postcode": "L18 9SZ", "lat": "53.3678634", "lon": "-2.9006288" }, "geometry": { "type": "Point", "coordinates": [ -2.900629, 53.367863 ] } },
{ "type": "Feature", "properties": { "LocalAuthorityBusinessID": "9071", "BusinessName": "Bargain Beers", "BusinessAddress": " 39 Prescot Road Fairfield Liverpool L7 0LA UK", "BusinessType": "Retailers - other", "BusinessTypeID": "4613", "RatingKey": null, "Postcode": "L7 0LA", "lat": "53.4135462", "lon": "-2.9370667" }, "geometry": { "type": "Point", "coordinates": [ -2.937067, 53.413546 ] } },
{ "type": "Feature", "properties": { "LocalAuthorityBusinessID": "PI\/000212750", "BusinessName": "Bargain Booze", "BusinessAddress": " 1 - 3 West Derby Village Liverpool L12 5HJ UK", "BusinessType": "Retailers - other", "BusinessTypeID": "4613", "RatingKey": null, "Postcode": "L12 5HJ", "lat": "53.432931", "lon": "-2.9105719" }, "geometry": { "type": "Point", "coordinates": [ -2.910572, 53.432931 ] } },
{ "type": "Feature", "properties": { "LocalAuthorityBusinessID": "PI\/000260435", "BusinessName": "Bargain Booze", "BusinessAddress": " 117 Belle Vale Road Liverpool L25 2PE UK", "BusinessType": "Retailers - other", "BusinessTypeID": "4613", "RatingKey": null, "Postcode": "L25 2PE", "lat": "53.3882433", "lon": "-2.8563344" }, "geometry": { "type": "Point", "coordinates": [ -2.856334, 53.388243 ] } },
{ "type": "Feature", "properties": { "LocalAuthorityBusinessID": "77565", "BusinessName": "Bargain Booze", "BusinessAddress": " 119 Moss Lane Liverpool L9 8AQ UK", "BusinessType": "Retailers - other", "BusinessTypeID": "4613", "RatingKey": null, "Postcode": "L9 8AQ", "lat": "53.4629279", "lon": "-2.9709686" }, "geometry": { "type": "Point", "coordinates": [ -2.970969, 53.462928 ] } },
{ "type": "Feature", "properties": { "LocalAuthorityBusinessID": "PI\/000225994", "BusinessName": "Bargain Booze", "BusinessAddress": " 120 Stonebridge Lane Liverpool L11 9AZ UK", "BusinessType": "Retailers - other", "BusinessTypeID": "4613", "RatingKey": null, "Postcode": "L11 9AZ", "lat": "53.4547069", "lon": "-2.9066625" }, "geometry": { "type": "Point", "coordinates": [ -2.906662, 53.454707 ] } },
{ "type": "Feature", "properties": { "LocalAuthorityBusinessID": "76111", "BusinessName": "Bargain Booze", "BusinessAddress": " 136 Warbreck Moor Liverpool L9 0HY UK", "BusinessType": "Retailers - other", "BusinessTypeID": "4613", "RatingKey": null, "Postcode": "L9 0HY", "lat": "53.4671733", "lon": "-2.9559232" }, "geometry": { "type": "Point", "coordinates": [ -2.955923, 53.467173 ] } },
{ "type": "Feature", "properties": { "LocalAuthorityBusinessID": "PI\/000272216", "BusinessName": "Bargain Booze", "BusinessAddress": " 14 Broadway Liverpool L11 1BZ UK", "BusinessType": "Retailers - other", "BusinessTypeID": "4613", "RatingKey": null, "Postcode": "L11 1BZ", "lat": "53.4418764", "lon": "-2.9303595" }, "geometry": { "type": "Point", "coordinates": [ -2.930359, 53.441876 ] } },
{ "type": "Feature", "properties": { "LocalAuthorityBusinessID": "PI\/000108326", "BusinessName": "Bargain Booze", "BusinessAddress": " 204 Muirhead Avenue Liverpool L13 0BA UK", "BusinessType": "Retailers - other", "BusinessTypeID": "4613", "RatingKey": null, "Postcode": "L13 0BA", "lat": "53.4310602", "lon": "-2.9240944" }, "geometry": { "type": "Point", "coordinates": [ -2.924094, 53.43106 ] } },
{ "type": "Feature", "properties": { "LocalAuthorityBusinessID": "11710", "BusinessName": "BARGAIN BOOZE", "BusinessAddress": " 37 Speke Church Road Liverpool L24 3TA UK", "BusinessType": "Retailers - other", "BusinessTypeID": "4613", "RatingKey": null, "Postcode": "L24 3TA", "lat": "53.3446827", "lon": "-2.8579597" }, "geometry": { "type": "Point", "coordinates": [ -2.85796, 53.344683 ] } },
{ "type": "Feature", "properties": { "LocalAuthorityBusinessID": "PI\/000145312", "BusinessName": "Bargain Booze", "BusinessAddress": " 421 - 423 Smithdown Road Wavertree Liverpool L15 3JL UK", "BusinessType": "Retailers - other", "BusinessTypeID": "4613", "RatingKey": null, "Postcode": "L15 3JL", "lat": "53.3901124", "lon": "-2.9294395" }, "geometry": { "type": "Point", "coordinates": [ -2.929439, 53.390112 ] } },
{ "type": "Feature", "properties": { "LocalAuthorityBusinessID": "PI\/000165979", "BusinessName": "Bargain Booze", "BusinessAddress": " 525 West Derby Road Tuebrook Liverpool L13 8AA UK", "BusinessType": "Retailers - other", "BusinessTypeID": "4613", "RatingKey": null, "Postcode": "L13 8AA", "lat": "53.42592815", "lon": "-2.928478747313243" }, "geometry": { "type": "Point", "coordinates": [ -2.928479, 53.425928 ] } },
{ "type": "Feature", "properties": { "LocalAuthorityBusinessID": "17930", "BusinessName": "BARGAIN BOOZE", "BusinessAddress": " 55 Booker Avenue Liverpool L18 4QZ UK", "BusinessType": "Retailers - other", "BusinessTypeID": "4613", "RatingKey": null, "Postcode": "L18 4QZ", "lat": "53.3709969", "lon": "-2.9026187" }, "geometry": { "type": "Point", "coordinates": [ -2.902619, 53.370997 ] } },
{ "type": "Feature", "properties": { "LocalAuthorityBusinessID": "PI\/000272151", "BusinessName": "Bargain Booze", "BusinessAddress": " 557 Prescot Road Old Swan Liverpool L13 5UX UK", "BusinessType": "Retailers - other", "BusinessTypeID": "4613", "RatingKey": null, "Postcode": "L13 5UX", "lat": "53.4136441", "lon": "-2.9122641" }, "geometry": { "type": "Point", "coordinates": [ -2.912264, 53.413644 ] } },
{ "type": "Feature", "properties": { "LocalAuthorityBusinessID": "PI\/000033395", "BusinessName": "Bargain Booze", "BusinessAddress": " 6 Childwall Abbey Road Liverpool L16 0JN UK", "BusinessType": "Retailers - other", "BusinessTypeID": "4613", "RatingKey": null, "Postcode": "L16 0JN", "lat": "53.3945241", "lon": "-2.8906559" }, "geometry": { "type": "Point", "coordinates": [ -2.890656, 53.394524 ] } },
{ "type": "Feature", "properties": { "LocalAuthorityBusinessID": "PI\/000005644", "BusinessName": "Bargain Booze", "BusinessAddress": " 69 Allerton Road Mossley Hill Liverpool L18 2DA UK", "BusinessType": "Retailers - other", "BusinessTypeID": "4613", "RatingKey": null, "Postcode": "L18 2DA", "lat": "53.386476", "lon": "-2.9087563" }, "geometry": { "type": "Point", "coordinates": [ -2.908756, 53.386476 ] } },
{ "type": "Feature", "properties": { "LocalAuthorityBusinessID": "PI\/000260776", "BusinessName": "Baris Kebab House", "BusinessAddress": " 481 Rice Lane Liverpool L9 8AP UK", "BusinessType": "Takeaway\/sandwich shop", "BusinessTypeID": "7844", "RatingKey": null, "Postcode": "L9 8AP", "lat": "53.4608019", "lon": "-2.9617876" }, "geometry": { "type": "Point", "coordinates": [ -2.961788, 53.460802 ] } },
{ "type": "Feature", "properties": { "LocalAuthorityBusinessID": "PI\/000257193", "BusinessName": "Barley Mow Hotel", "BusinessAddress": " 104 High Street Wavertree Liverpool L15 8JS UK", "BusinessType": "Pub\/bar\/nightclub", "BusinessTypeID": "7843", "RatingKey": null, "Postcode": "L15 8JS", "lat": "53.3982588", "lon": "-2.9158736" }, "geometry": { "type": "Point", "coordinates": [ -2.915874, 53.398259 ] } },
{ "type": "Feature", "properties": { "LocalAuthorityBusinessID": "PI\/000013237", "BusinessName": "Barlows After School Club, Barlows C", "BusinessAddress": " Barlows Primary School Barlows Lane Liverpool L9 9EH UK", "BusinessType": "Restaurant\/Cafe\/Canteen", "BusinessTypeID": "1", "RatingKey": null, "Postcode": "L9 9EH", "lat": "53.46951525", "lon": "-2.940012007430697" }, "geometry": { "type": "Point", "coordinates": [ -2.940012, 53.469515 ] } },
{ "type": "Feature", "properties": { "LocalAuthorityBusinessID": "PI\/000013236", "BusinessName": "Barlows County Primary School", "BusinessAddress": " Barlows Primary School Barlows Lane Liverpool L9 9EH UK", "BusinessType": "School\/college\/university", "BusinessTypeID": "7845", "RatingKey": null, "Postcode": "L9 9EH", "lat": "53.46951525", "lon": "-2.940012007430697" }, "geometry": { "type": "Point", "coordinates": [ -2.940012, 53.469515 ] } },
{ "type": "Feature", "properties": { "LocalAuthorityBusinessID": "67718", "BusinessName": "Barney's Bargains", "BusinessAddress": " 1A Hartley Avenue Liverpool L9 7DB UK", "BusinessType": "Mobile caterer", "BusinessTypeID": "7846", "RatingKey": null, "Postcode": "L9 7DB", "lat": "53.4611598", "lon": "-2.9523856" }, "geometry": { "type": "Point", "coordinates": [ -2.952386, 53.46116 ] } },
{ "type": "Feature", "properties": { "LocalAuthorityBusinessID": "55116", "BusinessName": "Barton Day Nurseries", "BusinessAddress": " 5 Lower Lane Liverpool L9 7AD UK", "BusinessType": "Other catering premises", "BusinessTypeID": "7841", "RatingKey": null, "Postcode": "L9 7AD", "lat": "53.4621677", "lon": "-2.9261208" }, "geometry": { "type": "Point", "coordinates": [ -2.926121, 53.462168 ] } },
{ "type": "Feature", "properties": { "LocalAuthorityBusinessID": "PI\/000271411", "BusinessName": "Barton Rouge", "BusinessAddress": " 26 Exchange Street East Liverpool L2 3PH UK", "BusinessType": "Restaurant\/Cafe\/Canteen", "BusinessTypeID": "1", "RatingKey": null, "Postcode": "L2 3PH", "lat": "53.4078613", "lon": "-2.9910448" }, "geometry": { "type": "Point", "coordinates": [ -2.991045, 53.407861 ] } },
{ "type": "Feature", "properties": { "LocalAuthorityBusinessID": "832926", "BusinessName": "Bartons Bees", "BusinessAddress": " 70 Childwall Road Liverpool L15 6UX UK", "BusinessType": "Retailers - other", "BusinessTypeID": "4613", "RatingKey": null, "Postcode": "L15 6UX", "lat": "53.3966801", "lon": "-2.9053327" }, "geometry": { "type": "Point", "coordinates": [ -2.905333, 53.39668 ] } },
{ "type": "Feature", "properties": { "LocalAuthorityBusinessID": "PI\/000274188", "BusinessName": "Basha Restaurant", "BusinessAddress": " 172 Smithdown Road Wavertree Liverpool L15 3JR UK", "BusinessType": "Restaurant\/Cafe\/Canteen", "BusinessTypeID": "1", "RatingKey": null, "Postcode": "L15 3JR", "lat": "53.3923866", "lon": "-2.9333258" }, "geometry": { "type": "Point", "coordinates": [ -2.933326, 53.392387 ] } },
{ "type": "Feature", "properties": { "LocalAuthorityBusinessID": "79087", "BusinessName": "Bavette Steak House", "BusinessAddress": " 49 Allerton Road Woolton Liverpool L25 7RE UK", "BusinessType": "Restaurant\/Cafe\/Canteen", "BusinessTypeID": "1", "RatingKey": null, "Postcode": "L25 7RE", "lat": "53.3743777", "lon": "-2.8689381" }, "geometry": { "type": "Point", "coordinates": [ -2.868938, 53.374378 ] } },
{ "type": "Feature", "properties": { "LocalAuthorityBusinessID": "71716", "BusinessName": "Be at One", "BusinessAddress": " 13 - 15 Seel Street Liverpool L1 4AU UK", "BusinessType": "Pub\/bar\/nightclub", "BusinessTypeID": "7843", "RatingKey": null, "Postcode": "L1 4AU", "lat": "53.4028145", "lon": "-2.9813028" }, "geometry": { "type": "Point", "coordinates": [ -2.981303, 53.402814 ] } },
{ "type": "Feature", "properties": { "LocalAuthorityBusinessID": "PI\/000247767", "BusinessName": "Bean Coffee & Cocktails", "BusinessAddress": " 3 St Pauls Square Liverpool L3 9RY UK", "BusinessType": "Restaurant\/Cafe\/Canteen", "BusinessTypeID": "1", "RatingKey": null, "Postcode": "L3 9RY", "lat": "53.41008325", "lon": "-2.994001151331717" }, "geometry": { "type": "Point", "coordinates": [ -2.994001, 53.410083 ] } },
{ "type": "Feature", "properties": { "LocalAuthorityBusinessID": "PI\/000060824", "BusinessName": "Bear & Staff", "BusinessAddress": " 24 Gateacre Brow Liverpool L25 3PB UK", "BusinessType": "Restaurant\/Cafe\/Canteen", "BusinessTypeID": "1", "RatingKey": null, "Postcode": "L25 3PB", "lat": "53.3832515", "lon": "-2.8626821" }, "geometry": { "type": "Point", "coordinates": [ -2.862682, 53.383252 ] } },
{ "type": "Feature", "properties": { "LocalAuthorityBusinessID": "PI\/000252528", "BusinessName": "Beauty Bazaar Harvey Nichols", "BusinessAddress": " 16 Manestys Lane Liverpool L1 3DL UK", "BusinessType": "Pub\/bar\/nightclub", "BusinessTypeID": "7843", "RatingKey": null, "Postcode": "L1 3DL", "lat": "53.4033569", "lon": "-2.9859227" }, "geometry": { "type": "Point", "coordinates": [ -2.985923, 53.403357 ] } },
{ "type": "Feature", "properties": { "LocalAuthorityBusinessID": "71555", "BusinessName": "Beckys Kitchen", "BusinessAddress": " 26 Breckfield Road North Liverpool L5 4NH UK", "BusinessType": "Restaurant\/Cafe\/Canteen", "BusinessTypeID": "1", "RatingKey": null, "Postcode": "L5 4NH", "lat": "53.4241697", "lon": "-2.9627036" }, "geometry": { "type": "Point", "coordinates": [ -2.962704, 53.42417 ] } },
{ "type": "Feature", "properties": { "LocalAuthorityBusinessID": "PI\/000246057", "BusinessName": "Bee Bees", "BusinessAddress": " 138 London Road Liverpool L3 8JH UK", "BusinessType": "Restaurant\/Cafe\/Canteen", "BusinessTypeID": "1", "RatingKey": null, "Postcode": "L3 8JH", "lat": "53.4095306", "lon": "-2.9715959" }, "geometry": { "type": "Point", "coordinates": [ -2.971596, 53.409531 ] } },
{ "type": "Feature", "properties": { "LocalAuthorityBusinessID": "PI\/000113168", "BusinessName": "Beehive", "BusinessAddress": " 14 Mount Pleasant Liverpool L3 5RY UK", "BusinessType": "Pub\/bar\/nightclub", "BusinessTypeID": "7843", "RatingKey": null, "Postcode": "L3 5RY", "lat": "53.4049915", "lon": "-2.9772059" }, "geometry": { "type": "Point", "coordinates": [ -2.977206, 53.404992 ] } },
{ "type": "Feature", "properties": { "LocalAuthorityBusinessID": "PI\/000116520", "BusinessName": "Beehive", "BusinessAddress": " The Beehive, 7 Paradise Street Liverpool L1 3BL UK", "BusinessType": "Restaurant\/Cafe\/Canteen", "BusinessTypeID": "1", "RatingKey": null, "Postcode": "L1 3BL", "lat": "53.40505895", "lon": "-2.985618011524496" }, "geometry": { "type": "Point", "coordinates": [ -2.985618, 53.405059 ] } },
{ "type": "Feature", "properties": { "LocalAuthorityBusinessID": "14105", "BusinessName": "BEER ENGINE", "BusinessAddress": " 14 - 18 Hardman Street Liverpool L1 9AX UK", "BusinessType": "Pub\/bar\/nightclub", "BusinessTypeID": "7843", "RatingKey": null, "Postcode": "L1 9AX", "lat": "53.4016918", "lon": "-2.9715983" }, "geometry": { "type": "Point", "coordinates": [ -2.971598, 53.401692 ] } },
{ "type": "Feature", "properties": { "LocalAuthorityBusinessID": "PI\/000264816", "BusinessName": "Bei Jing", "BusinessAddress": " 10 Knight Street Liverpool L1 9DS UK", "BusinessType": "Restaurant\/Cafe\/Canteen", "BusinessTypeID": "1", "RatingKey": null, "Postcode": "L1 9DS", "lat": "53.4002985", "lon": "-2.9745736" }, "geometry": { "type": "Point", "coordinates": [ -2.974574, 53.400298 ] } },
{ "type": "Feature", "properties": { "LocalAuthorityBusinessID": "PI\/000264801", "BusinessName": "Beijing Palace", "BusinessAddress": " 168 County Road Liverpool L4 5PH UK", "BusinessType": "Takeaway\/sandwich shop", "BusinessTypeID": "7844", "RatingKey": null, "Postcode": "L4 5PH", "lat": "53.4431993", "lon": "-2.9705668" }, "geometry": { "type": "Point", "coordinates": [ -2.970567, 53.443199 ] } },
{ "type": "Feature", "properties": { "LocalAuthorityBusinessID": "PI\/000235487", "BusinessName": "Beijing Palace", "BusinessAddress": " 80 Muirhead Avenue East Liverpool L11 1EL UK", "BusinessType": "Takeaway\/sandwich shop", "BusinessTypeID": "7844", "RatingKey": null, "Postcode": "L11 1EL", "lat": "53.4395189", "lon": "-2.9112454" }, "geometry": { "type": "Point", "coordinates": [ -2.911245, 53.439519 ] } },
{ "type": "Feature", "properties": { "LocalAuthorityBusinessID": "78841", "BusinessName": "Bêkas Cafê", "BusinessAddress": " 136 London Road Liverpool L3 5NL UK", "BusinessType": "Restaurant\/Cafe\/Canteen", "BusinessTypeID": "1", "RatingKey": null, "Postcode": "L3 5NL", "lat": "53.4091052", "lon": "-2.9732378" }, "geometry": { "type": "Point", "coordinates": [ -2.973238, 53.409105 ] } },
{ "type": "Feature", "properties": { "LocalAuthorityBusinessID": "PI\/000244167", "BusinessName": "Belal's News", "BusinessAddress": " 16 Lawrence Road Liverpool L15 0EG UK", "BusinessType": "Retailers - other", "BusinessTypeID": "4613", "RatingKey": null, "Postcode": "L15 0EG", "lat": "53.3953392", "lon": "-2.9289792" }, "geometry": { "type": "Point", "coordinates": [ -2.928979, 53.395339 ] } },
{ "type": "Feature", "properties": { "LocalAuthorityBusinessID": "PI\/000124757", "BusinessName": "Bella Italia", "BusinessAddress": " 39 Ranelagh Street Liverpool L1 1JP UK", "BusinessType": "Restaurant\/Cafe\/Canteen", "BusinessTypeID": "1", "RatingKey": null, "Postcode": "L1 1JP", "lat": "53.4051723", "lon": "-2.979166" }, "geometry": { "type": "Point", "coordinates": [ -2.979166, 53.405172 ] } },
{ "type": "Feature", "properties": { "LocalAuthorityBusinessID": "PI\/000170940", "BusinessName": "Bellaire Catering", "BusinessAddress": " 33 Whinfell Road Liverpool L12 2AS UK", "BusinessType": "Other catering premises", "BusinessTypeID": "7841", "RatingKey": null, "Postcode": "L12 2AS", "lat": "53.4238748", "lon": "-2.9044974" }, "geometry": { "type": "Point", "coordinates": [ -2.904497, 53.423875 ] } },
{ "type": "Feature", "properties": { "LocalAuthorityBusinessID": "PI\/000011428", "BusinessName": "Bellefield Care Home HC-One", "BusinessAddress": " 42 Aysgarth Avenue Liverpool L12 8QT UK", "BusinessType": "Hospitals\/Childcare\/Caring Premises", "BusinessTypeID": "5", "RatingKey": null, "Postcode": "L12 8QT", "lat": "53.4274904", "lon": "-2.9007284" }, "geometry": { "type": "Point", "coordinates": [ -2.900728, 53.42749 ] } },
{ "type": "Feature", "properties": { "LocalAuthorityBusinessID": "PI\/000261926", "BusinessName": "Belles", "BusinessAddress": " 58 Moss Lane Liverpool L9 8AN UK", "BusinessType": "Restaurant\/Cafe\/Canteen", "BusinessTypeID": "1", "RatingKey": null, "Postcode": "L9 8AN", "lat": "53.4629279", "lon": "-2.9709686" }, "geometry": { "type": "Point", "coordinates": [ -2.970969, 53.462928 ] } },
{ "type": "Feature", "properties": { "LocalAuthorityBusinessID": "PI\/000165892", "BusinessName": "Belmont Hotel", "BusinessAddress": " 303 West Derby Road Everton Liverpool L6 5EG UK", "BusinessType": "Pub\/bar\/nightclub", "BusinessTypeID": "7843", "RatingKey": null, "Postcode": "L6 5EG", "lat": "53.418254", "lon": "-2.9518888" }, "geometry": { "type": "Point", "coordinates": [ -2.951889, 53.418254 ] } },
{ "type": "Feature", "properties": { "LocalAuthorityBusinessID": "PI\/000271322", "BusinessName": "Belzan", "BusinessAddress": " 371 Smithdown Road Wavertree Liverpool L15 3JJ UK", "BusinessType": "Restaurant\/Cafe\/Canteen", "BusinessTypeID": "1", "RatingKey": null, "Postcode": "L15 3JJ", "lat": "53.3923866", "lon": "-2.9333258" }, "geometry": { "type": "Point", "coordinates": [ -2.933326, 53.392387 ] } },
{ "type": "Feature", "properties": { "LocalAuthorityBusinessID": "PI\/000242620", "BusinessName": "Bem Brasil", "BusinessAddress": " 47 - 49 Hanover Street Liverpool L1 3DN UK", "BusinessType": "Restaurant\/Cafe\/Canteen", "BusinessTypeID": "1", "RatingKey": null, "Postcode": "L1 3DN", "lat": "53.4032609", "lon": "-2.984143" }, "geometry": { "type": "Point", "coordinates": [ -2.984143, 53.403261 ] } },
{ "type": "Feature", "properties": { "LocalAuthorityBusinessID": "PI\/000095417", "BusinessName": "Bennetts", "BusinessAddress": " 231 Lower House Lane Liverpool L11 2SF UK", "BusinessType": "Retailers - other", "BusinessTypeID": "4613", "RatingKey": null, "Postcode": "L11 2SF", "lat": "53.4482285", "lon": "-2.9113406" }, "geometry": { "type": "Point", "coordinates": [ -2.911341, 53.448228 ] } },
{ "type": "Feature", "properties": { "LocalAuthorityBusinessID": "PI\/000040307", "BusinessName": "Bens General Store", "BusinessAddress": " 142 Cockburn Street Liverpool L8 9TD UK", "BusinessType": "Retailers - other", "BusinessTypeID": "4613", "RatingKey": null, "Postcode": "L8 9TD", "lat": "53.3802536", "lon": "-2.96705" }, "geometry": { "type": "Point", "coordinates": [ -2.96705, 53.380254 ] } },
{ "type": "Feature", "properties": { "LocalAuthorityBusinessID": "78558", "BusinessName": "BERRINGTON'S", "BusinessAddress": " 12 Smithdown Place Liverpool L15 9EH UK", "BusinessType": "Restaurant\/Cafe\/Canteen", "BusinessTypeID": "1", "RatingKey": null, "Postcode": "L15 9EH", "lat": "53.3891581", "lon": "-2.9144195" }, "geometry": { "type": "Point", "coordinates": [ -2.91442, 53.389158 ] } },
{ "type": "Feature", "properties": { "LocalAuthorityBusinessID": "77960", "BusinessName": "Berry & Rye", "BusinessAddress": " 48 Berry Street Liverpool L1 4JQ UK", "BusinessType": "Pub\/bar\/nightclub", "BusinessTypeID": "7843", "RatingKey": null, "Postcode": "L1 4JQ", "lat": "53.4005407", "lon": "-2.9764186" }, "geometry": { "type": "Point", "coordinates": [ -2.976419, 53.400541 ] } },
{ "type": "Feature", "properties": { "LocalAuthorityBusinessID": "PI\/000274940", "BusinessName": "Best Food", "BusinessAddress": " 119 Molyneux Road Kensington Liverpool L6 6AJ UK", "BusinessType": "Retailers - other", "BusinessTypeID": "4613", "RatingKey": null, "Postcode": "L6 6AJ", "lat": "53.4139606", "lon": "-2.9520429" }, "geometry": { "type": "Point", "coordinates": [ -2.952043, 53.413961 ] } },
{ "type": "Feature", "properties": { "LocalAuthorityBusinessID": "PI\/000268464", "BusinessName": "Best One", "BusinessAddress": " 101 Limekiln Lane Kirkdale Liverpool L5 8SL UK", "BusinessType": "Retailers - other", "BusinessTypeID": "4613", "RatingKey": null, "Postcode": "L5 8SL", "lat": "53.4192155", "lon": "-2.984183" }, "geometry": { "type": "Point", "coordinates": [ -2.984183, 53.419215 ] } },
{ "type": "Feature", "properties": { "LocalAuthorityBusinessID": "1977", "BusinessName": "Best One", "BusinessAddress": " 155 - 157 Muirhead Avenue East Liverpool L11 1EQ UK", "BusinessType": "Retailers - other", "BusinessTypeID": "4613", "RatingKey": null, "Postcode": "L11 1EQ", "lat": "53.4396231", "lon": "-2.9114229" }, "geometry": { "type": "Point", "coordinates": [ -2.911423, 53.439623 ] } },
{ "type": "Feature", "properties": { "LocalAuthorityBusinessID": "PI\/000232522", "BusinessName": "Best One", "BusinessAddress": " 171 Eastern Avenue Liverpool L24 2SZ UK", "BusinessType": "Retailers - other", "BusinessTypeID": "4613", "RatingKey": null, "Postcode": "L24 2SZ", "lat": "53.3392025", "lon": "-2.8296877" }, "geometry": { "type": "Point", "coordinates": [ -2.829688, 53.339202 ] } },
{ "type": "Feature", "properties": { "LocalAuthorityBusinessID": "PI\/000036443", "BusinessName": "Best One", "BusinessAddress": " 204 - 206 County Road Liverpool L4 5PJ UK", "BusinessType": "Retailers - other", "BusinessTypeID": "4613", "RatingKey": null, "Postcode": "L4 5PJ", "lat": "53.4447654", "lon": "-2.9686561" }, "geometry": { "type": "Point", "coordinates": [ -2.968656, 53.444765 ] } },
{ "type": "Feature", "properties": { "LocalAuthorityBusinessID": "PI\/000111420", "BusinessName": "Best One", "BusinessAddress": " 59 Moss Way Liverpool L11 0BL UK", "BusinessType": "Retailers - other", "BusinessTypeID": "4613", "RatingKey": null, "Postcode": "L11 0BL", "lat": "53.4568258", "lon": "-2.8974224" }, "geometry": { "type": "Point", "coordinates": [ -2.897422, 53.456826 ] } },
{ "type": "Feature", "properties": { "LocalAuthorityBusinessID": "PI\/000167054", "BusinessName": "Best One", "BusinessAddress": " 73 - 77 Window Lane Liverpool L19 8EJ UK", "BusinessType": "Retailers - other", "BusinessTypeID": "4613", "RatingKey": null, "Postcode": "L19 8EJ", "lat": "53.34865", "lon": "-2.897031" }, "geometry": { "type": "Point", "coordinates": [ -2.897031, 53.34865 ] } },
{ "type": "Feature", "properties": { "LocalAuthorityBusinessID": "11622", "BusinessName": "BEST ONE", "BusinessAddress": " 97 Townsend Lane Tuebrook Liverpool L6 0AY UK", "BusinessType": "Retailers - other", "BusinessTypeID": "4613", "RatingKey": null, "Postcode": "L6 0AY", "lat": "53.4291827", "lon": "-2.9468104" }, "geometry": { "type": "Point", "coordinates": [ -2.94681, 53.429183 ] } },
{ "type": "Feature", "properties": { "LocalAuthorityBusinessID": "71018", "BusinessName": "Best One\/Freshway", "BusinessAddress": " 64 - 66 London Road Liverpool L3 5NF UK", "BusinessType": "Retailers - other", "BusinessTypeID": "4613", "RatingKey": null, "Postcode": "L3 5NF", "lat": "53.4092971", "lon": "-2.9763207" }, "geometry": { "type": "Point", "coordinates": [ -2.976321, 53.409297 ] } },
{ "type": "Feature", "properties": { "LocalAuthorityBusinessID": "PI\/000253696", "BusinessName": "Best Price", "BusinessAddress": " 180 - 184 Garston Old Road Liverpool L19 1QL UK", "BusinessType": "Retailers - other", "BusinessTypeID": "4613", "RatingKey": null, "Postcode": "L19 1QL", "lat": "53.3594769", "lon": "-2.9014815" }, "geometry": { "type": "Point", "coordinates": [ -2.901482, 53.359477 ] } },
{ "type": "Feature", "properties": { "LocalAuthorityBusinessID": "PI\/000181681", "BusinessName": "Bestway Cash & Carry Ltd", "BusinessAddress": " Bestway Cash And Carry Kingsway Park Liverpool L3 3JA UK", "BusinessType": "Distributors\/Transporters", "BusinessTypeID": "7", "RatingKey": null, "Postcode": "L3 3JA", "lat": "53.41750485", "lon": "-2.980889164318029" }, "geometry": { "type": "Point", "coordinates": [ -2.980889, 53.417505 ] } },
{ "type": "Feature", "properties": { "LocalAuthorityBusinessID": "PI\/000083743", "BusinessName": "Bettys Eggs", "BusinessAddress": " 22 Hornby Close Liverpool L9 3DA UK", "BusinessType": "Retailers - other", "BusinessTypeID": "4613", "RatingKey": null, "Postcode": "L9 3DA", "lat": "53.4558665", "lon": "-2.9703844" }, "geometry": { "type": "Point", "coordinates": [ -2.970384, 53.455866 ] } },
{ "type": "Feature", "properties": { "LocalAuthorityBusinessID": "PI\/000246245", "BusinessName": "Bexleys", "BusinessAddress": " 1A Speke Hall Avenue Liverpool L24 1UX UK", "BusinessType": "Retailers - other", "BusinessTypeID": "4613", "RatingKey": null, "Postcode": "L24 1UX", "lat": "53.3440228", "lon": "-2.8612505" }, "geometry": { "type": "Point", "coordinates": [ -2.861251, 53.344023 ] } },
{ "type": "Feature", "properties": { "LocalAuthorityBusinessID": "PI\/000120774", "BusinessName": "Bexleys", "BusinessAddress": " 561 Prescot Road Old Swan Liverpool L13 5UX UK", "BusinessType": "Retailers - other", "BusinessTypeID": "4613", "RatingKey": null, "Postcode": "L13 5UX", "lat": "53.4139328", "lon": "-2.9108479" }, "geometry": { "type": "Point", "coordinates": [ -2.910848, 53.413933 ] } },
{ "type": "Feature", "properties": { "LocalAuthorityBusinessID": "PI\/000166363", "BusinessName": "Bexleys", "BusinessAddress": " 611 West Derby Road Tuebrook Liverpool L13 8AG UK", "BusinessType": "Retailers - other", "BusinessTypeID": "4613", "RatingKey": null, "Postcode": "L13 8AG", "lat": "53.4251614", "lon": "-2.9306686" }, "geometry": { "type": "Point", "coordinates": [ -2.930669, 53.425161 ] } },
{ "type": "Feature", "properties": { "LocalAuthorityBusinessID": "PI\/000248696", "BusinessName": "Bhaji Indian Takeaway", "BusinessAddress": " 613 West Derby Road Tuebrook Liverpool L13 8AG UK", "BusinessType": "Takeaway\/sandwich shop", "BusinessTypeID": "7844", "RatingKey": null, "Postcode": "L13 8AG", "lat": "53.42592815", "lon": "-2.928478747313243" }, "geometry": { "type": "Point", "coordinates": [ -2.928479, 53.425928 ] } },
{ "type": "Feature", "properties": { "LocalAuthorityBusinessID": "PI\/000161916", "BusinessName": "Big Bite", "BusinessAddress": " 88 Upper Parliament Street Liverpool L8 7SY UK", "BusinessType": "Takeaway\/sandwich shop", "BusinessTypeID": "7844", "RatingKey": null, "Postcode": "L8 7SY", "lat": "53.3960554", "lon": "-2.9676614" }, "geometry": { "type": "Point", "coordinates": [ -2.967661, 53.396055 ] } },
{ "type": "Feature", "properties": { "LocalAuthorityBusinessID": "PI\/000269348", "BusinessName": "Big Bog Brewing Company Ltd", "BusinessAddress": " 76 Evans Road Liverpool L24 9PB UK", "BusinessType": "Manufacturers\/packers", "BusinessTypeID": "7839", "RatingKey": null, "Postcode": "L24 9PB", "lat": "53.3516876", "lon": "-2.8580624" }, "geometry": { "type": "Point", "coordinates": [ -2.858062, 53.351688 ] } },
{ "type": "Feature", "properties": { "LocalAuthorityBusinessID": "77317", "BusinessName": "Big Bowl", "BusinessAddress": " 29 Prescot Street Liverpool L7 8UE UK", "BusinessType": "Restaurant\/Cafe\/Canteen", "BusinessTypeID": "1", "RatingKey": null, "Postcode": "L7 8UE", "lat": "53.4106274", "lon": "-2.9648117" }, "geometry": { "type": "Point", "coordinates": [ -2.964812, 53.410627 ] } },
{ "type": "Feature", "properties": { "LocalAuthorityBusinessID": "PI\/000264971", "BusinessName": "Big Bowl Noodle Bar", "BusinessAddress": " 12 - 14 Berry Street Liverpool L1 4JF UK", "BusinessType": "Takeaway\/sandwich shop", "BusinessTypeID": "7844", "RatingKey": null, "Postcode": "L1 4JF", "lat": "53.4010662", "lon": "-2.9759847" }, "geometry": { "type": "Point", "coordinates": [ -2.975985, 53.401066 ] } },
{ "type": "Feature", "properties": { "LocalAuthorityBusinessID": "78111", "BusinessName": "Big Kahuna Street Food", "BusinessAddress": " 2A Hermes Road Liverpool L11 0ED UK", "BusinessType": "Other catering premises", "BusinessTypeID": "7841", "RatingKey": null, "Postcode": "L11 0ED", "lat": "53.4639635", "lon": "-2.9047232" }, "geometry": { "type": "Point", "coordinates": [ -2.904723, 53.463963 ] } },
{ "type": "Feature", "properties": { "LocalAuthorityBusinessID": "PI\/000261848", "BusinessName": "Bills", "BusinessAddress": " 10 Thomas Steers Way Liverpool L1 8LW UK", "BusinessType": "Restaurant\/Cafe\/Canteen", "BusinessTypeID": "1", "RatingKey": null, "Postcode": "L1 8LW", "lat": "53.4027232", "lon": "-2.988395" }, "geometry": { "type": "Point", "coordinates": [ -2.988395, 53.402723 ] } },
{ "type": "Feature", "properties": { "LocalAuthorityBusinessID": "PI\/000274084", "BusinessName": "Bing House", "BusinessAddress": " 10 Hardman Street Liverpool L1 9AX UK", "BusinessType": "Takeaway\/sandwich shop", "BusinessTypeID": "7844", "RatingKey": null, "Postcode": "L1 9AX", "lat": "53.4016918", "lon": "-2.9715983" }, "geometry": { "type": "Point", "coordinates": [ -2.971598, 53.401692 ] } },
{ "type": "Feature", "properties": { "LocalAuthorityBusinessID": "PI\/000086541", "BusinessName": "Bistro Noir", "BusinessAddress": " 14 - 16 Lark Lane Liverpool L17 8US UK", "BusinessType": "Restaurant\/Cafe\/Canteen", "BusinessTypeID": "1", "RatingKey": null, "Postcode": "L17 8US", "lat": "53.380249", "lon": "-2.9469966" }, "geometry": { "type": "Point", "coordinates": [ -2.946997, 53.380249 ] } },
{ "type": "Feature", "properties": { "LocalAuthorityBusinessID": "PI\/000025383", "BusinessName": "Bistro Pierre", "BusinessAddress": " 14 Button Street Liverpool L2 6PS UK", "BusinessType": "Restaurant\/Cafe\/Canteen", "BusinessTypeID": "1", "RatingKey": null, "Postcode": "L2 6PS", "lat": "53.4060443", "lon": "-2.9861542" }, "geometry": { "type": "Point", "coordinates": [ -2.986154, 53.406044 ] } },
{ "type": "Feature", "properties": { "LocalAuthorityBusinessID": "71829", "BusinessName": "Bite", "BusinessAddress": " 3B Tower Gardens Liverpool L3 1LG UK", "BusinessType": "Restaurant\/Cafe\/Canteen", "BusinessTypeID": "1", "RatingKey": null, "Postcode": "L3 1LG", "lat": "53.4062159", "lon": "-2.9937859" }, "geometry": { "type": "Point", "coordinates": [ -2.993786, 53.406216 ] } },
{ "type": "Feature", "properties": { "LocalAuthorityBusinessID": "PI\/000125282", "BusinessName": "Bj's Diner", "BusinessAddress": " 179 Rathbone Road Old Swan Liverpool L13 1BA UK", "BusinessType": "Restaurant\/Cafe\/Canteen", "BusinessTypeID": "1", "RatingKey": null, "Postcode": "L13 1BA", "lat": "53.4077413", "lon": "-2.9191476" }, "geometry": { "type": "Point", "coordinates": [ -2.919148, 53.407741 ] } },
{ "type": "Feature", "properties": { "LocalAuthorityBusinessID": "79063", "BusinessName": "Black Bull", "BusinessAddress": " 2 Warbreck Moor Liverpool L9 0ER UK", "BusinessType": "Restaurant\/Cafe\/Canteen", "BusinessTypeID": "1", "RatingKey": null, "Postcode": "L9 0ER", "lat": "53.4671733", "lon": "-2.9559232" }, "geometry": { "type": "Point", "coordinates": [ -2.955923, 53.467173 ] } },
{ "type": "Feature", "properties": { "LocalAuthorityBusinessID": "PI\/000060820", "BusinessName": "Black Bull Inn", "BusinessAddress": " 9 Gateacre Brow Liverpool L25 3PA UK", "BusinessType": "Restaurant\/Cafe\/Canteen", "BusinessTypeID": "1", "RatingKey": null, "Postcode": "L25 3PA", "lat": "53.3832515", "lon": "-2.8626821" }, "geometry": { "type": "Point", "coordinates": [ -2.862682, 53.383252 ] } },
{ "type": "Feature", "properties": { "LocalAuthorityBusinessID": "78342", "BusinessName": "Black Star Pizza", "BusinessAddress": " 23 High Street Wavertree Liverpool L15 8HE UK", "BusinessType": "Takeaway\/sandwich shop", "BusinessTypeID": "7844", "RatingKey": null, "Postcode": "L15 8HE", "lat": "53.3988922", "lon": "-2.9212049" }, "geometry": { "type": "Point", "coordinates": [ -2.921205, 53.398892 ] } },
{ "type": "Feature", "properties": { "LocalAuthorityBusinessID": "78505", "BusinessName": "Blackburne Arms", "BusinessAddress": " 24 Catharine Street Liverpool L8 7NL UK", "BusinessType": "Restaurant\/Cafe\/Canteen", "BusinessTypeID": "1", "RatingKey": null, "Postcode": "L8 7NL", "lat": "53.3961974", "lon": "-2.9678741" }, "geometry": { "type": "Point", "coordinates": [ -2.967874, 53.396197 ] } },
{ "type": "Feature", "properties": { "LocalAuthorityBusinessID": "78908", "BusinessName": "Blackburne House Cafe", "BusinessAddress": " Clatterbridge Cancer Hospital, 65 Pembroke Place Liverpool L7 8YA UK", "BusinessType": "Restaurant\/Cafe\/Canteen", "BusinessTypeID": "1", "RatingKey": null, "Postcode": "L7 8YA", "lat": "53.4086811", "lon": "-2.965178191965386" }, "geometry": { "type": "Point", "coordinates": [ -2.965178, 53.408681 ] } },
{ "type": "Feature", "properties": { "LocalAuthorityBusinessID": "79083", "BusinessName": "Blantyre House", "BusinessAddress": " 9 Haverstock Road Liverpool L6 8PA UK", "BusinessType": "Restaurant\/Cafe\/Canteen", "BusinessTypeID": "1", "RatingKey": null, "Postcode": "L6 8PA", "lat": "53.4157415", "lon": "-2.9391353" }, "geometry": { "type": "Point", "coordinates": [ -2.939135, 53.415742 ] } },
{ "type": "Feature", "properties": { "LocalAuthorityBusinessID": "PI\/000267569", "BusinessName": "Blarney Stone", "BusinessAddress": " 33 Renshaw Street Liverpool L1 2SA UK", "BusinessType": "Pub\/bar\/nightclub", "BusinessTypeID": "7843", "RatingKey": null, "Postcode": "L1 2SA", "lat": "53.4036469", "lon": "-2.9768266" }, "geometry": { "type": "Point", "coordinates": [ -2.976827, 53.403647 ] } },
{ "type": "Feature", "properties": { "LocalAuthorityBusinessID": "PI\/000135523", "BusinessName": "Blue Angel", "BusinessAddress": " 108 Seel Street Liverpool L1 4BL UK", "BusinessType": "Pub\/bar\/nightclub", "BusinessTypeID": "7843", "RatingKey": null, "Postcode": "L1 4BL", "lat": "53.4016156", "lon": "-2.9780357" }, "geometry": { "type": "Point", "coordinates": [ -2.978036, 53.401616 ] } },
{ "type": "Feature", "properties": { "LocalAuthorityBusinessID": "PI\/000248136", "BusinessName": "Blue Coat School", "BusinessAddress": " The Blue Coat School Church Road Wavertree Liverpool L15 9EE UK", "BusinessType": "School\/college\/university", "BusinessTypeID": "7845", "RatingKey": null, "Postcode": "L15 9EE", "lat": "53.39320325", "lon": "-2.916211519451411" }, "geometry": { "type": "Point", "coordinates": [ -2.916212, 53.393203 ] } },
{ "type": "Feature", "properties": { "LocalAuthorityBusinessID": "PI\/000235152", "BusinessName": "Blue Dragon", "BusinessAddress": " 15 Goodison Road Liverpool L4 4EH UK", "BusinessType": "Takeaway\/sandwich shop", "BusinessTypeID": "7844", "RatingKey": null, "Postcode": "L4 4EH", "lat": "53.4376249", "lon": "-2.9677596" }, "geometry": { "type": "Point", "coordinates": [ -2.96776, 53.437625 ] } },
{ "type": "Feature", "properties": { "LocalAuthorityBusinessID": "76073", "BusinessName": "Blue Nile", "BusinessAddress": " 41 Holt Road Liverpool L7 2PL UK", "BusinessType": "Retailers - other", "BusinessTypeID": "4613", "RatingKey": null, "Postcode": "L7 2PL", "lat": "53.4101205", "lon": "-2.9478238" }, "geometry": { "type": "Point", "coordinates": [ -2.947824, 53.41012 ] } },
{ "type": "Feature", "properties": { "LocalAuthorityBusinessID": "PI\/000248723", "BusinessName": "Bluebell Nursery", "BusinessAddress": " 7 Heathfield Road Liverpool L15 9EU UK", "BusinessType": "Hospitals\/Childcare\/Caring Premises", "BusinessTypeID": "5", "RatingKey": null, "Postcode": "L15 9EU", "lat": "53.3913984", "lon": "-2.9103257" }, "geometry": { "type": "Point", "coordinates": [ -2.910326, 53.391398 ] } },